$GPGGA,211907.000,4648.904,N,09204.330,W,1,12,1.0,0.0,M,0.0,M,,*7C
$GPGSA,A,3,01,02,03,04,05,06,07,08,09,10,11,12,1.0,1.0,1.0*30
$GPRMC,211907.000,A,4648.904,N,09204.330,W,000.0,000.0,231220,000.0,W*68
$GPGGA,211908.000,4648.904,N,09204.330,W,1,12,1.0,0.0,M,0.0,M,,*73
$GPGSA,A,3,01,02,03,04,05,06,07,08,09,10,11,12,1.0,1.0,1.0*30
$GPRMC,211908.000,A,4648.904,N,09204.330,W,000.0,000.0,231220,000.0,W*67
$GPGGA,211909.000,4648.904,N,09204.330,W,1,12,1.0,0.0,M,0.0,M,,*72
$GPGSA,A,3,01,02,03,04,05,06,07,08,09,10,11,12,1.0,1.0,1.0*30
$GPRMC,211909.000,A,4648.904,N,09204.330,W,000.0,000.0,231220,000.0,W*66
$GPGGA,211910.000,4648.904,N,09204.330,W,1,12,1.0,0.0,M,0.0,M,,*7A
$GPGSA,A,3,01,02,03,04,05,06,07,08,09,10,11,12,1.0,1.0,1.0*30
$GPRMC,211910.000,A,4648.904,N,09204.330,W,000.0,000.0,231220,000.0,W*6E
$GPGGA,211911.000,4648.904,N,09204.330,W,1,12,1.0,0.0,M,0.0,M,,*7B
$GPGSA,A,3,01,02,03,04,05,06,07,08,09,10,11,12,1.0,1.0,1.0*30
$GPRMC,211911.000,A,4648.904,N,09204.330,W,000.0,000.0,231220,000.0,W*6F
$GPGGA,211912.000,4648.904,N,09204.330,W,1,12,1.0,0.0,M,0.0,M,,*78
$GPGSA,A,3,01,02,03,04,05,06,07,08,09,10,11,12,1.0,1.0,1.0*30
$GPRMC,211912.000,A,4648.904,N,09204.330,W,000.0,000.0,231220,000.0,W*6C
$GPGGA,211913.000,4648.904,N,09204.330,W,1,12,1.0,0.0,M,0.0,M,,*79
$GPGSA,A,3,01,02,03,04,05,06,07,08,09,10,11,12,1.0,1.0,1.0*30
$GPRMC,211913.000,A,4648.904,N,09204.330,W,006.1,063.4,231220,000.0,W*6B
$GPGGA,211914.000,4648.905,N,09204.328,W,1,12,1.0,0.0,M,0.0,M,,*76
$GPGSA,A,3,01,02,03,04,05,06,07,08,09,10,11,12,1.0,1.0,1.0*30
$GPRMC,211914.000,A,4648.905,N,09204.328,W,006.1,000.0,231220,000.0,W*65
$GPGGA,211915.000,4648.905,N,09204.328,W,1,12,1.0,0.0,M,0.0,M,,*77
$GPGSA,A,3,01,02,03,04,05,06,07,08,09,10,11,12,1.0,1.0,1.0*30
$GPRMC,211915.000,A,4648.905,N,09204.328,W,000.0,000.0,231220,000.0,W*63
$GPGGA,211916.000,4648.905,N,09204.328,W,1,12,1.0,0.0,M,0.0,M,,*74
$GPGSA,A,3,01,02,03,04,05,06,07,08,09,10,11,12,1.0,1.0,1.0*30
$GPRMC,211916.000,A,4648.905,N,09204.328,W,000.0,000.0,231220,000.0,W*60
$GPGGA,211917.000,4648.905,N,09204.328,W,1,12,1.0,0.0,M,0.0,M,,*75
$GPGSA,A,3,01,02,03,04,05,06,07,08,09,10,11,12,1.0,1.0,1.0*30
$GPRMC,211917.000,A,4648.905,N,09204.328,W,010.8,000.0,231220,000.0,W*68
$GPGGA,211918.000,4648.908,N,09204.328,W,1,12,1.0,0.0,M,0.0,M,,*77
$GPGSA,A,3,01,02,03,04,05,06,07,08,09,10,11,12,1.0,1.0,1.0*30
$GPRMC,211918.000,A,4648.908,N,09204.328,W,010.8,000.0,231220,000.0,W*6A
$GPGGA,211919.000,4648.908,N,09204.328,W,1,12,1.0,0.0,M,0.0,M,,*76
$GPGSA,A,3,01,02,03,04,05,06,07,08,09,10,11,12,1.0,1.0,1.0*30
$GPRMC,211919.000,A,4648.908,N,09204.328,W,000.0,000.0,231220,000.0,W*62
$GPGGA,211920.000,4648.908,N,09204.328,W,1,12,1.0,0.0,M,0.0,M,,*7C
$GPGSA,A,3,01,02,03,04,05,06,07,08,09,10,11,12,1.0,1.0,1.0*30
$GPRMC,211920.000,A,4648.908,N,09204.328,W,004.4,135.1,231220,000.0,W*6E
$GPGGA,211921.000,4648.907,N,09204.327,W,1,12,1.0,0.0,M,0.0,M,,*7D
$GPGSA,A,3,01,02,03,04,05,06,07,08,09,10,11,12,1.0,1.0,1.0*30
$GPRMC,211921.000,A,4648.907,N,09204.327,W,004.4,000.0,231220,000.0,W*69
$GPGGA,211922.000,4648.907,N,09204.327,W,1,12,1.0,0.0,M,0.0,M,,*7E
$GPGSA,A,3,01,02,03,04,05,06,07,08,09,10,11,12,1.0,1.0,1.0*30
$GPRMC,211922.000,A,4648.907,N,09204.327,W,000.0,000.0,231220,000.0,W*6A
$GPGGA,211923.000,4648.907,N,09204.327,W,1,12,1.0,0.0,M,0.0,M,,*7F
$GPGSA,A,3,01,02,03,04,05,06,07,08,09,10,11,12,1.0,1.0,1.0*30
$GPRMC,211923.000,A,4648.907,N,09204.327,W,000.0,000.0,231220,000.0,W*6B
$GPGGA,211924.000,4648.907,N,09204.327,W,1,12,1.0,0.0,M,0.0,M,,*78
$GPGSA,A,3,01,02,03,04,05,06,07,08,09,10,11,12,1.0,1.0,1.0*30
$GPRMC,211924.000,A,4648.907,N,09204.327,W,003.6,180.0,231220,000.0,W*60
$GPGGA,211925.000,4648.906,N,09204.327,W,1,12,1.0,0.0,M,0.0,M,,*78
$GPGSA,A,3,01,02,03,04,05,06,07,08,09,10,11,12,1.0,1.0,1.0*30
$GPRMC,211925.000,A,4648.906,N,09204.327,W,003.6,000.0,231220,000.0,W*69
$GPGGA,211926.000,4648.906,N,09204.327,W,1,12,1.0,0.0,M,0.0,M,,*7B
$GPGSA,A,3,01,02,03,04,05,06,07,08,09,10,11,12,1.0,1.0,1.0*30
$GPRMC,211926.000,A,4648.906,N,09204.327,W,000.0,000.0,231220,000.0,W*6F
$GPGGA,211927.000,4648.906,N,09204.327,W,1,12,1.0,0.0,M,0.0,M,,*7A
$GPGSA,A,3,01,02,03,04,05,06,07,08,09,10,11,12,1.0,1.0,1.0*30
$GPRMC,211927.000,A,4648.906,N,09204.327,W,003.6,000.0,231220,000.0,W*6B
$GPGGA,211928.000,4648.907,N,09204.327,W,1,12,1.0,0.0,M,0.0,M,,*74
$GPGSA,A,3,01,02,03,04,05,06,07,08,09,10,11,12,1.0,1.0,1.0*30
$GPRMC,211928.000,A,4648.907,N,09204.327,W,003.6,000.0,231220,000.0,W*65
$GPGGA,211929.000,4648.907,N,09204.327,W,1,12,1.0,0.0,M,0.0,M,,*75
$GPGSA,A,3,01,02,03,04,05,06,07,08,09,10,11,12,1.0,1.0,1.0*30
$GPRMC,211929.000,A,4648.907,N,09204.327,W,000.0,000.0,231220,000.0,W*61
$GPGGA,211930.000,4648.907,N,09204.327,W,1,12,1.0,0.0,M,0.0,M,,*7D
$GPGSA,A,3,01,02,03,04,05,06,07,08,09,10,11,12,1.0,1.0,1.0*30
$GPRMC,211930.000,A,4648.907,N,09204.327,W,000.0,000.0,231220,000.0,W*69
$GPGGA,211931.000,4648.907,N,09204.327,W,1,12,1.0,0.0,M,0.0,M,,*7C
$GPGSA,A,3,01,02,03,04,05,06,07,08,09,10,11,12,1.0,1.0,1.0*30
$GPRMC,211931.000,A,4648.907,N,09204.327,W,000.0,000.0,231220,000.0,W*68
$GPGGA,211932.000,4648.907,N,09204.327,W,1,12,1.0,0.0,M,0.0,M,,*7F
$GPGSA,A,3,01,02,03,04,05,06,07,08,09,10,11,12,1.0,1.0,1.0*30
$GPRMC,211932.000,A,4648.907,N,09204.327,W,000.0,000.0,231220,000.0,W*6B
$GPGGA,211933.000,4648.907,N,09204.327,W,1,12,1.0,0.0,M,0.0,M,,*7E
$GPGSA,A,3,01,02,03,04,05,06,07,08,09,10,11,12,1.0,1.0,1.0*30
$GPRMC,211933.000,A,4648.907,N,09204.327,W,000.0,000.0,231220,000.0,W*6A
$GPGGA,211934.000,4648.907,N,09204.327,W,1,12,1.0,0.0,M,0.0,M,,*79
$GPGSA,A,3,01,02,03,04,05,06,07,08,09,10,11,12,1.0,1.0,1.0*30
$GPRMC,211934.000,A,4648.907,N,09204.327,W,000.0,000.0,231220,000.0,W*6D
$GPGGA,211935.000,4648.907,N,09204.327,W,1,12,1.0,0.0,M,0.0,M,,*78
$GPGSA,A,3,01,02,03,04,05,06,07,08,09,10,11,12,1.0,1.0,1.0*30
$GPRMC,211935.000,A,4648.907,N,09204.327,W,000.0,000.0,231220,000.0,W*6C
$GPGGA,211936.000,4648.907,N,09204.327,W,1,12,1.0,0.0,M,0.0,M,,*7B
$GPGSA,A,3,01,02,03,04,05,06,07,08,09,10,11,12,1.0,1.0,1.0*30
$GPRMC,211936.000,A,4648.907,N,09204.327,W,013.1,044.9,231220,000.0,W*65
$GPGGA,211937.000,4648.910,N,09204.324,W,1,12,1.0,0.0,M,0.0,M,,*7F
$GPGSA,A,3,01,02,03,04,05,06,07,08,09,10,11,12,1.0,1.0,1.0*30
$GPRMC,211937.000,A,4648.910,N,09204.324,W,002.5,090.0,231220,000.0,W*65
$GPGGA,211938.000,4648.910,N,09204.323,W,1,12,1.0,0.0,M,0.0,M,,*77
$GPGSA,A,3,01,02,03,04,05,06,07,08,09,10,11,12,1.0,1.0,1.0*30
$GPRMC,211938.000,A,4648.910,N,09204.323,W,002.5,090.0,231220,000.0,W*6D
$GPGGA,211939.000,4648.910,N,09204.322,W,1,12,1.0,0.0,M,0.0,M,,*77
$GPGSA,A,3,01,02,03,04,05,06,07,08,09,10,11,12,1.0,1.0,1.0*30
$GPRMC,211939.000,A,4648.910,N,09204.322,W,004.9,090.0,231220,000.0,W*67
$GPGGA,211940.000,4648.910,N,09204.320,W,1,12,1.0,0.0,M,0.0,M,,*7B
$GPGSA,A,3,01,02,03,04,05,06,07,08,09,10,11,12,1.0,1.0,1.0*30
$GPRMC,211940.000,A,4648.910,N,09204.320,W,002.5,090.0,231220,000.0,W*61
$GPGGA,211941.000,4648.910,N,09204.319,W,1,12,1.0,0.0,M,0.0,M,,*70
$GPGSA,A,3,01,02,03,04,05,06,07,08,09,10,11,12,1.0,1.0,1.0*30
$GPRMC,211941.000,A,4648.910,N,09204.319,W,008.7,135.1,231220,000.0,W*6D
$GPGGA,211942.000,4648.908,N,09204.317,W,1,12,1.0,0.0,M,0.0,M,,*74
$GPGSA,A,3,01,02,03,04,05,06,07,08,09,10,11,12,1.0,1.0,1.0*30
$GPRMC,211942.000,A,4648.908,N,09204.317,W,006.1,116.6,231220,000.0,W*67
$GPGGA,211943.000,4648.907,N,09204.315,W,1,12,1.0,0.0,M,0.0,M,,*78
$GPGSA,A,3,01,02,03,04,05,06,07,08,09,10,11,12,1.0,1.0,1.0*30
$GPRMC,211943.000,A,4648.907,N,09204.315,W,007.6,153.5,231220,000.0,W*6F
$GPGGA,211944.000,4648.905,N,09204.314,W,1,12,1.0,0.0,M,0.0,M,,*7C
$GPGSA,A,3,01,02,03,04,05,06,07,08,09,10,11,12,1.0,1.0,1.0*30
$GPRMC,211944.000,A,4648.905,N,09204.314,W,008.7,135.1,231220,000.0,W*61
$GPGGA,211945.000,4648.903,N,09204.312,W,1,12,1.0,0.0,M,0.0,M,,*7D
$GPGSA,A,3,01,02,03,04,05,06,07,08,09,10,11,12,1.0,1.0,1.0*30
$GPRMC,211945.000,A,4648.903,N,09204.312,W,008.7,135.1,231220,000.0,W*60
$GPGGA,211946.000,4648.901,N,09204.310,W,1,12,1.0,0.0,M,0.0,M,,*7E
$GPGSA,A,3,01,02,03,04,05,06,07,08,09,10,11,12,1.0,1.0,1.0*30
$GPRMC,211946.000,A,4648.901,N,09204.310,W,011.9,146.4,231220,000.0,W*64
$GPGGA,211947.000,4648.898,N,09204.308,W,1,12,1.0,0.0,M,0.0,M,,*77
$GPGSA,A,3,01,02,03,04,05,06,07,08,09,10,11,12,1.0,1.0,1.0*30
$GPRMC,211947.000,A,4648.898,N,09204.308,W,008.7,135.1,231220,000.0,W*6A
$GPGGA,211948.000,4648.896,N,09204.306,W,1,12,1.0,0.0,M,0.0,M,,*78
$GPGSA,A,3,01,02,03,04,05,06,07,08,09,10,11,12,1.0,1.0,1.0*30
$GPRMC,211948.000,A,4648.896,N,09204.306,W,008.7,135.1,231220,000.0,W*65
$GPGGA,211949.000,4648.894,N,09204.304,W,1,12,1.0,0.0,M,0.0,M,,*79
$GPGSA,A,3,01,02,03,04,05,06,07,08,09,10,11,12,1.0,1.0,1.0*30
$GPRMC,211949.000,A,4648.894,N,09204.304,W,006.1,116.7,231220,000.0,W*6B
$GPGGA,211950.000,4648.893,N,09204.302,W,1,12,1.0,0.0,M,0.0,M,,*70
$GPGSA,A,3,01,02,03,04,05,06,07,08,09,10,11,12,1.0,1.0,1.0*30
$GPRMC,211950.000,A,4648.893,N,09204.302,W,004.4,135.1,231220,000.0,W*62
$GPGGA,211951.000,4648.892,N,09204.301,W,1,12,1.0,0.0,M,0.0,M,,*73
$GPGSA,A,3,01,02,03,04,05,06,07,08,09,10,11,12,1.0,1.0,1.0*30
$GPRMC,211951.000,A,4648.892,N,09204.301,W,008.2,108.5,231220,000.0,W*61
$GPGGA,211952.000,4648.891,N,09204.298,W,1,12,1.0,0.0,M,0.0,M,,*72
$GPGSA,A,3,01,02,03,04,05,06,07,08,09,10,11,12,1.0,1.0,1.0*30
$GPRMC,211952.000,A,4648.891,N,09204.298,W,002.5,090.0,231220,000.0,W*68
$GPGGA,211953.000,4648.891,N,09204.297,W,1,12,1.0,0.0,M,0.0,M,,*7C
$GPGSA,A,3,01,02,03,04,05,06,07,08,09,10,11,12,1.0,1.0,1.0*30
$GPRMC,211953.000,A,4648.891,N,09204.297,W,007.4,090.0,231220,000.0,W*62
$GPGGA,211954.000,4648.891,N,09204.294,W,1,12,1.0,0.0,M,0.0,M,,*78
$GPGSA,A,3,01,02,03,04,05,06,07,08,09,10,11,12,1.0,1.0,1.0*30
$GPRMC,211954.000,A,4648.891,N,09204.294,W,002.5,090.0,231220,000.0,W*62
$GPGGA,211955.000,4648.891,N,09204.293,W,1,12,1.0,0.0,M,0.0,M,,*7E
$GPGSA,A,3,01,02,03,04,05,06,07,08,09,10,11,12,1.0,1.0,1.0*30
$GPRMC,211955.000,A,4648.891,N,09204.293,W,006.1,063.3,231220,000.0,W*6B
$GPGGA,211956.000,4648.892,N,09204.291,W,1,12,1.0,0.0,M,0.0,M,,*7C
$GPGSA,A,3,01,02,03,04,05,06,07,08,09,10,11,12,1.0,1.0,1.0*30
$GPRMC,211956.000,A,4648.892,N,09204.291,W,004.4,044.9,231220,000.0,W*61
$GPGGA,211957.000,4648.893,N,09204.290,W,1,12,1.0,0.0,M,0.0,M,,*7D
$GPGSA,A,3,01,02,03,04,05,06,07,08,09,10,11,12,1.0,1.0,1.0*30
$GPRMC,211957.000,A,4648.893,N,09204.290,W,004.4,044.9,231220,000.0,W*60
$GPGGA,211958.000,4648.894,N,09204.289,W,1,12,1.0,0.0,M,0.0,M,,*7D
$GPGSA,A,3,01,02,03,04,05,06,07,08,09,10,11,12,1.0,1.0,1.0*30
$GPRMC,211958.000,A,4648.894,N,09204.289,W,006.1,063.3,231220,000.0,W*68
$GPGGA,211959.000,4648.895,N,09204.287,W,1,12,1.0,0.0,M,0.0,M,,*73
$GPGSA,A,3,01,02,03,04,05,06,07,08,09,10,11,12,1.0,1.0,1.0*30
$GPRMC,211959.000,A,4648.895,N,09204.287,W,007.6,026.5,231220,000.0,W*67
$GPGGA,212000.000,4648.897,N,09204.286,W,1,12,1.0,0.0,M,0.0,M,,*76
$GPGSA,A,3,01,02,03,04,05,06,07,08,09,10,11,12,1.0,1.0,1.0*30
$GPRMC,212000.000,A,4648.897,N,09204.286,W,006.1,063.3,231220,000.0,W*63
$GPGGA,212001.000,4648.898,N,09204.284,W,1,12,1.0,0.0,M,0.0,M,,*7A
$GPGSA,A,3,01,02,03,04,05,06,07,08,09,10,11,12,1.0,1.0,1.0*30
$GPRMC,212001.000,A,4648.898,N,09204.284,W,007.6,026.5,231220,000.0,W*6E
$GPGGA,212002.000,4648.900,N,09204.283,W,1,12,1.0,0.0,M,0.0,M,,*7E
$GPGSA,A,3,01,02,03,04,05,06,07,08,09,10,11,12,1.0,1.0,1.0*30
$GPRMC,212002.000,A,4648.900,N,09204.283,W,006.1,063.3,231220,000.0,W*6B
$GPGGA,212003.000,4648.901,N,09204.281,W,1,12,1.0,0.0,M,0.0,M,,*7C
$GPGSA,A,3,01,02,03,04,05,06,07,08,09,10,11,12,1.0,1.0,1.0*30
$GPRMC,212003.000,A,4648.901,N,09204.281,W,004.4,044.9,231220,000.0,W*61
$GPGGA,212004.000,4648.902,N,09204.280,W,1,12,1.0,0.0,M,0.0,M,,*79
$GPGSA,A,3,01,02,03,04,05,06,07,08,09,10,11,12,1.0,1.0,1.0*30
$GPRMC,212004.000,A,4648.902,N,09204.280,W,003.6,000.0,231220,000.0,W*68
$GPGGA,212005.000,4648.903,N,09204.280,W,1,12,1.0,0.0,M,0.0,M,,*79
$GPGSA,A,3,01,02,03,04,05,06,07,08,09,10,11,12,1.0,1.0,1.0*30
$GPRMC,212005.000,A,4648.903,N,09204.280,W,002.5,090.0,231220,000.0,W*63
$GPGGA,212006.000,4648.903,N,09204.279,W,1,12,1.0,0.0,M,0.0,M,,*7C
$GPGSA,A,3,01,02,03,04,05,06,07,08,09,10,11,12,1.0,1.0,1.0*30
$GPRMC,212006.000,A,4648.903,N,09204.279,W,003.6,000.0,231220,000.0,W*6D
$GPGGA,212007.000,4648.904,N,09204.279,W,1,12,1.0,0.0,M,0.0,M,,*7A
$GPGSA,A,3,01,02,03,04,05,06,07,08,09,10,11,12,1.0,1.0,1.0*30
$GPRMC,212007.000,A,4648.904,N,09204.279,W,002.5,090.0,231220,000.0,W*60
$GPGGA,212008.000,4648.904,N,09204.278,W,1,12,1.0,0.0,M,0.0,M,,*74
$GPGSA,A,3,01,02,03,04,05,06,07,08,09,10,11,12,1.0,1.0,1.0*30
$GPRMC,212008.000,A,4648.904,N,09204.278,W,003.6,000.0,231220,000.0,W*65
$GPGGA,212009.000,4648.905,N,09204.278,W,1,12,1.0,0.0,M,0.0,M,,*74
$GPGSA,A,3,01,02,03,04,05,06,07,08,09,10,11,12,1.0,1.0,1.0*30
$GPRMC,212009.000,A,4648.905,N,09204.278,W,003.6,000.0,231220,000.0,W*65
$GPGGA,212010.000,4648.905,N,09204.278,W,1,12,1.0,0.0,M,0.0,M,,*7C
$GPGSA,A,3,01,02,03,04,05,06,07,08,09,10,11,12,1.0,1.0,1.0*30
$GPRMC,212010.000,A,4648.905,N,09204.278,W,004.4,044.9,231220,000.0,W*61
$GPGGA,212011.000,4648.906,N,09204.277,W,1,12,1.0,0.0,M,0.0,M,,*71
$GPGSA,A,3,01,02,03,04,05,06,07,08,09,10,11,12,1.0,1.0,1.0*30
$GPRMC,212011.000,A,4648.906,N,09204.277,W,008.7,044.9,231220,000.0,W*63
$GPGGA,212012.000,4648.908,N,09204.275,W,1,12,1.0,0.0,M,0.0,M,,*7E
$GPGSA,A,3,01,02,03,04,05,06,07,08,09,10,11,12,1.0,1.0,1.0*30
$GPRMC,212012.000,A,4648.908,N,09204.275,W,008.7,000.0,231220,000.0,W*65
$GPGGA,212013.000,4648.908,N,09204.275,W,1,12,1.0,0.0,M,0.0,M,,*7F
$GPGSA,A,3,01,02,03,04,05,06,07,08,09,10,11,12,1.0,1.0,1.0*30
$GPRMC,212013.000,A,4648.908,N,09204.275,W,010.3,056.2,231220,000.0,W*68
$GPGGA,212014.000,4648.910,N,09204.272,W,1,12,1.0,0.0,M,0.0,M,,*76
$GPGSA,A,3,01,02,03,04,05,06,07,08,09,10,11,12,1.0,1.0,1.0*30
$GPRMC,212014.000,A,4648.910,N,09204.272,W,010.3,000.0,231220,000.0,W*60
$GPGGA,212015.000,4648.910,N,09204.272,W,1,12,1.0,0.0,M,0.0,M,,*77
$GPGSA,A,3,01,02,03,04,05,06,07,08,09,10,11,12,1.0,1.0,1.0*30
$GPRMC,212015.000,A,4648.910,N,09204.272,W,010.3,056.2,231220,000.0,W*60
$GPGGA,212016.000,4648.912,N,09204.269,W,1,12,1.0,0.0,M,0.0,M,,*7C
$GPGSA,A,3,01,02,03,04,05,06,07,08,09,10,11,12,1.0,1.0,1.0*30
$GPRMC,212016.000,A,4648.912,N,09204.269,W,003.6,000.0,231220,000.0,W*6D
$GPGGA,212017.000,4648.913,N,09204.269,W,1,12,1.0,0.0,M,0.0,M,,*7C
$GPGSA,A,3,01,02,03,04,05,06,07,08,09,10,11,12,1.0,1.0,1.0*30
$GPRMC,212017.000,A,4648.913,N,09204.269,W,006.1,063.4,231220,000.0,W*6E
$GPGGA,212018.000,4648.914,N,09204.267,W,1,12,1.0,0.0,M,0.0,M,,*7A
$GPGSA,A,3,01,02,03,04,05,06,07,08,09,10,11,12,1.0,1.0,1.0*30
$GPRMC,212018.000,A,4648.914,N,09204.267,W,006.1,063.4,231220,000.0,W*68
$GPGGA,212019.000,4648.915,N,09204.265,W,1,12,1.0,0.0,M,0.0,M,,*78
$GPGSA,A,3,01,02,03,04,05,06,07,08,09,10,11,12,1.0,1.0,1.0*30
$GPRMC,212019.000,A,4648.915,N,09204.265,W,006.1,063.3,231220,000.0,W*6D
$GPGGA,212020.000,4648.916,N,09204.263,W,1,12,1.0,0.0,M,0.0,M,,*77
$GPGSA,A,3,01,02,03,04,05,06,07,08,09,10,11,12,1.0,1.0,1.0*30
$GPRMC,212020.000,A,4648.916,N,09204.263,W,004.4,044.9,231220,000.0,W*6A
$GPGGA,212021.000,4648.917,N,09204.262,W,1,12,1.0,0.0,M,0.0,M,,*76
$GPGSA,A,3,01,02,03,04,05,06,07,08,09,10,11,12,1.0,1.0,1.0*30
$GPRMC,212021.000,A,4648.917,N,09204.262,W,008.2,071.5,231220,000.0,W*6B
$GPGGA,212022.000,4648.918,N,09204.259,W,1,12,1.0,0.0,M,0.0,M,,*72
$GPGSA,A,3,01,02,03,04,05,06,07,08,09,10,11,12,1.0,1.0,1.0*30
$GPRMC,212022.000,A,4648.918,N,09204.259,W,004.4,044.9,231220,000.0,W*6F
$GPGGA,212023.000,4648.919,N,09204.258,W,1,12,1.0,0.0,M,0.0,M,,*73
$GPGSA,A,3,01,02,03,04,05,06,07,08,09,10,11,12,1.0,1.0,1.0*30
$GPRMC,212023.000,A,4648.919,N,09204.258,W,006.1,063.4,231220,000.0,W*61
$GPGGA,212024.000,4648.920,N,09204.256,W,1,12,1.0,0.0,M,0.0,M,,*70
$GPGSA,A,3,01,02,03,04,05,06,07,08,09,10,11,12,1.0,1.0,1.0*30
$GPRMC,212024.000,A,4648.920,N,09204.256,W,006.1,063.3,231220,000.0,W*65
$GPGGA,212025.000,4648.921,N,09204.254,W,1,12,1.0,0.0,M,0.0,M,,*72
$GPGSA,A,3,01,02,03,04,05,06,07,08,09,10,11,12,1.0,1.0,1.0*30
$GPRMC,212025.000,A,4648.921,N,09204.254,W,004.4,044.9,231220,000.0,W*6F
$GPGGA,212026.000,4648.922,N,09204.253,W,1,12,1.0,0.0,M,0.0,M,,*75
$GPGSA,A,3,01,02,03,04,05,06,07,08,09,10,11,12,1.0,1.0,1.0*30
$GPRMC,212026.000,A,4648.922,N,09204.253,W,008.7,044.9,231220,000.0,W*67
$GPGGA,212027.000,4648.924,N,09204.251,W,1,12,1.0,0.0,M,0.0,M,,*70
$GPGSA,A,3,01,02,03,04,05,06,07,08,09,10,11,12,1.0,1.0,1.0*30
$GPRMC,212027.000,A,4648.924,N,09204.251,W,006.1,063.3,231220,000.0,W*65
$GPGGA,212028.000,4648.925,N,09204.249,W,1,12,1.0,0.0,M,0.0,M,,*77
$GPGSA,A,3,01,02,03,04,05,06,07,08,09,10,11,12,1.0,1.0,1.0*30
$GPRMC,212028.000,A,4648.925,N,09204.249,W,007.6,026.5,231220,000.0,W*63
$GPGGA,212029.000,4648.927,N,09204.248,W,1,12,1.0,0.0,M,0.0,M,,*75
$GPGSA,A,3,01,02,03,04,05,06,07,08,09,10,11,12,1.0,1.0,1.0*30
$GPRMC,212029.000,A,4648.927,N,09204.248,W,008.7,044.9,231220,000.0,W*67
$GPGGA,212030.000,4648.929,N,09204.246,W,1,12,1.0,0.0,M,0.0,M,,*7D
$GPGSA,A,3,01,02,03,04,05,06,07,08,09,10,11,12,1.0,1.0,1.0*30
$GPRMC,212030.000,A,4648.929,N,09204.246,W,007.6,026.5,231220,000.0,W*69
$GPGGA,212031.000,4648.931,N,09204.245,W,1,12,1.0,0.0,M,0.0,M,,*76
$GPGSA,A,3,01,02,03,04,05,06,07,08,09,10,11,12,1.0,1.0,1.0*30
$GPRMC,212031.000,A,4648.931,N,09204.245,W,008.7,044.9,231220,000.0,W*64
$GPGGA,212032.000,4648.933,N,09204.243,W,1,12,1.0,0.0,M,0.0,M,,*71
$GPGSA,A,3,01,02,03,04,05,06,07,08,09,10,11,12,1.0,1.0,1.0*30
$GPRMC,212032.000,A,4648.933,N,09204.243,W,008.7,044.9,231220,000.0,W*63
$GPGGA,212033.000,4648.935,N,09204.241,W,1,12,1.0,0.0,M,0.0,M,,*74
$GPGSA,A,3,01,02,03,04,05,06,07,08,09,10,11,12,1.0,1.0,1.0*30
$GPRMC,212033.000,A,4648.935,N,09204.241,W,007.6,026.5,231220,000.0,W*60
$GPGGA,212034.000,4648.937,N,09204.240,W,1,12,1.0,0.0,M,0.0,M,,*70
$GPGSA,A,3,01,02,03,04,05,06,07,08,09,10,11,12,1.0,1.0,1.0*30
$GPRMC,212034.000,A,4648.937,N,09204.240,W,008.7,044.9,231220,000.0,W*62
$GPGGA,212035.000,4648.939,N,09204.238,W,1,12,1.0,0.0,M,0.0,M,,*70
$GPGSA,A,3,01,02,03,04,05,06,07,08,09,10,11,12,1.0,1.0,1.0*30
$GPRMC,212035.000,A,4648.939,N,09204.238,W,008.7,044.9,231220,000.0,W*62
$GPGGA,212036.000,4648.941,N,09204.236,W,1,12,1.0,0.0,M,0.0,M,,*72
$GPGSA,A,3,01,02,03,04,05,06,07,08,09,10,11,12,1.0,1.0,1.0*30
$GPRMC,212036.000,A,4648.941,N,09204.236,W,004.4,044.9,231220,000.0,W*6F
$GPGGA,212037.000,4648.942,N,09204.235,W,1,12,1.0,0.0,M,0.0,M,,*73
$GPGSA,A,3,01,02,03,04,05,06,07,08,09,10,11,12,1.0,1.0,1.0*30
$GPRMC,212037.000,A,4648.942,N,09204.235,W,008.7,044.9,231220,000.0,W*61
$GPGGA,212038.000,4648.944,N,09204.233,W,1,12,1.0,0.0,M,0.0,M,,*7C
$GPGSA,A,3,01,02,03,04,05,06,07,08,09,10,11,12,1.0,1.0,1.0*30
$GPRMC,212038.000,A,4648.944,N,09204.233,W,008.7,044.9,231220,000.0,W*6E
$GPGGA,212039.000,4648.946,N,09204.231,W,1,12,1.0,0.0,M,0.0,M,,*7D
$GPGSA,A,3,01,02,03,04,05,06,07,08,09,10,11,12,1.0,1.0,1.0*30
$GPRMC,212039.000,A,4648.946,N,09204.231,W,008.7,044.9,231220,000.0,W*6F
$GPGGA,212040.000,4648.948,N,09204.229,W,1,12,1.0,0.0,M,0.0,M,,*74
$GPGSA,A,3,01,02,03,04,05,06,07,08,09,10,11,12,1.0,1.0,1.0*30
$GPRMC,212040.000,A,4648.948,N,09204.229,W,004.4,044.9,231220,000.0,W*69
$GPGGA,212041.000,4648.949,N,09204.228,W,1,12,1.0,0.0,M,0.0,M,,*75
$GPGSA,A,3,01,02,03,04,05,06,07,08,09,10,11,12,1.0,1.0,1.0*30
$GPRMC,212041.000,A,4648.949,N,09204.228,W,008.7,044.9,231220,000.0,W*67
$GPGGA,212042.000,4648.951,N,09204.226,W,1,12,1.0,0.0,M,0.0,M,,*71
$GPGSA,A,3,01,02,03,04,05,06,07,08,09,10,11,12,1.0,1.0,1.0*30
$GPRMC,212042.000,A,4648.951,N,09204.226,W,008.7,044.9,231220,000.0,W*63
$GPGGA,212043.000,4648.953,N,09204.224,W,1,12,1.0,0.0,M,0.0,M,,*70
$GPGSA,A,3,01,02,03,04,05,06,07,08,09,10,11,12,1.0,1.0,1.0*30
$GPRMC,212043.000,A,4648.953,N,09204.224,W,006.1,063.3,231220,000.0,W*65
$GPGGA,212044.000,4648.954,N,09204.222,W,1,12,1.0,0.0,M,0.0,M,,*76
$GPGSA,A,3,01,02,03,04,05,06,07,08,09,10,11,12,1.0,1.0,1.0*30
$GPRMC,212044.000,A,4648.954,N,09204.222,W,008.7,044.9,231220,000.0,W*64
$GPGGA,212045.000,4648.956,N,09204.220,W,1,12,1.0,0.0,M,0.0,M,,*77
$GPGSA,A,3,01,02,03,04,05,06,07,08,09,10,11,12,1.0,1.0,1.0*30
$GPRMC,212045.000,A,4648.956,N,09204.220,W,004.4,044.9,231220,000.0,W*6A
$GPGGA,212046.000,4648.957,N,09204.219,W,1,12,1.0,0.0,M,0.0,M,,*7F
$GPGSA,A,3,01,02,03,04,05,06,07,08,09,10,11,12,1.0,1.0,1.0*30
$GPRMC,212046.000,A,4648.957,N,09204.219,W,008.7,044.9,231220,000.0,W*6D
$GPGGA,212047.000,4648.959,N,09204.217,W,1,12,1.0,0.0,M,0.0,M,,*7E
$GPGSA,A,3,01,02,03,04,05,06,07,08,09,10,11,12,1.0,1.0,1.0*30
$GPRMC,212047.000,A,4648.959,N,09204.217,W,008.2,071.5,231220,000.0,W*63
$GPGGA,212048.000,4648.960,N,09204.214,W,1,12,1.0,0.0,M,0.0,M,,*78
$GPGSA,A,3,01,02,03,04,05,06,07,08,09,10,11,12,1.0,1.0,1.0*30
$GPRMC,212048.000,A,4648.960,N,09204.214,W,002.5,090.0,231220,000.0,W*62
$GPGGA,212049.000,4648.960,N,09204.213,W,1,12,1.0,0.0,M,0.0,M,,*7E
$GPGSA,A,3,01,02,03,04,05,06,07,08,09,10,11,12,1.0,1.0,1.0*30
$GPRMC,212049.000,A,4648.960,N,09204.213,W,010.3,056.2,231220,000.0,W*69
$GPGGA,212050.000,4648.962,N,09204.210,W,1,12,1.0,0.0,M,0.0,M,,*77
$GPGSA,A,3,01,02,03,04,05,06,07,08,09,10,11,12,1.0,1.0,1.0*30
$GPRMC,212050.000,A,4648.962,N,09204.210,W,002.5,090.0,231220,000.0,W*6D
$GPGGA,212051.000,4648.962,N,09204.209,W,1,12,1.0,0.0,M,0.0,M,,*7E
$GPGSA,A,3,01,02,03,04,05,06,07,08,09,10,11,12,1.0,1.0,1.0*30
$GPRMC,212051.000,A,4648.962,N,09204.209,W,008.2,071.5,231220,000.0,W*63
$GPGGA,212052.000,4648.963,N,09204.206,W,1,12,1.0,0.0,M,0.0,M,,*73
$GPGSA,A,3,01,02,03,04,05,06,07,08,09,10,11,12,1.0,1.0,1.0*30
$GPRMC,212052.000,A,4648.963,N,09204.206,W,002.5,090.0,231220,000.0,W*69
$GPGGA,212053.000,4648.963,N,09204.205,W,1,12,1.0,0.0,M,0.0,M,,*71
$GPGSA,A,3,01,02,03,04,05,06,07,08,09,10,11,12,1.0,1.0,1.0*30
$GPRMC,212053.000,A,4648.963,N,09204.205,W,006.1,063.3,231220,000.0,W*64
$GPGGA,212054.000,4648.964,N,09204.203,W,1,12,1.0,0.0,M,0.0,M,,*77
$GPGSA,A,3,01,02,03,04,05,06,07,08,09,10,11,12,1.0,1.0,1.0*30
$GPRMC,212054.000,A,4648.964,N,09204.203,W,006.1,063.4,231220,000.0,W*65
$GPGGA,212055.000,4648.965,N,09204.201,W,1,12,1.0,0.0,M,0.0,M,,*75
$GPGSA,A,3,01,02,03,04,05,06,07,08,09,10,11,12,1.0,1.0,1.0*30
$GPRMC,212055.000,A,4648.965,N,09204.201,W,006.1,063.4,231220,000.0,W*67
$GPGGA,212056.000,4648.966,N,09204.199,W,1,12,1.0,0.0,M,0.0,M,,*77
$GPGSA,A,3,01,02,03,04,05,06,07,08,09,10,11,12,1.0,1.0,1.0*30
$GPRMC,212056.000,A,4648.966,N,09204.199,W,008.7,044.9,231220,000.0,W*65
$GPGGA,212057.000,4648.968,N,09204.197,W,1,12,1.0,0.0,M,0.0,M,,*76
$GPGSA,A,3,01,02,03,04,05,06,07,08,09,10,11,12,1.0,1.0,1.0*30
$GPRMC,212057.000,A,4648.968,N,09204.197,W,006.1,063.3,231220,000.0,W*63
$GPGGA,212058.000,4648.969,N,09204.195,W,1,12,1.0,0.0,M,0.0,M,,*7A
$GPGSA,A,3,01,02,03,04,05,06,07,08,09,10,11,12,1.0,1.0,1.0*30
$GPRMC,212058.000,A,4648.969,N,09204.195,W,006.1,063.4,231220,000.0,W*68
$GPGGA,212059.000,4648.970,N,09204.193,W,1,12,1.0,0.0,M,0.0,M,,*75
$GPGSA,A,3,01,02,03,04,05,06,07,08,09,10,11,12,1.0,1.0,1.0*30
$GPRMC,212059.000,A,4648.970,N,09204.193,W,008.7,044.9,231220,000.0,W*67
$GPGGA,212100.000,4648.972,N,09204.191,W,1,12,1.0,0.0,M,0.0,M,,*78
$GPGSA,A,3,01,02,03,04,05,06,07,08,09,10,11,12,1.0,1.0,1.0*30
$GPRMC,212100.000,A,4648.972,N,09204.191,W,006.1,063.3,231220,000.0,W*6D
$GPGGA,212101.000,4648.973,N,09204.189,W,1,12,1.0,0.0,M,0.0,M,,*71
$GPGSA,A,3,01,02,03,04,05,06,07,08,09,10,11,12,1.0,1.0,1.0*30
$GPRMC,212101.000,A,4648.973,N,09204.189,W,008.7,044.9,231220,000.0,W*63
$GPGGA,212102.000,4648.975,N,09204.187,W,1,12,1.0,0.0,M,0.0,M,,*7A
$GPGSA,A,3,01,02,03,04,05,06,07,08,09,10,11,12,1.0,1.0,1.0*30
$GPRMC,212102.000,A,4648.975,N,09204.187,W,008.7,044.9,231220,000.0,W*68
$GPGGA,212103.000,4648.977,N,09204.185,W,1,12,1.0,0.0,M,0.0,M,,*7B
$GPGSA,A,3,01,02,03,04,05,06,07,08,09,10,11,12,1.0,1.0,1.0*30
$GPRMC,212103.000,A,4648.977,N,09204.185,W,006.1,063.3,231220,000.0,W*6E
$GPGGA,212104.000,4648.978,N,09204.183,W,1,12,1.0,0.0,M,0.0,M,,*75
$GPGSA,A,3,01,02,03,04,05,06,07,08,09,10,11,12,1.0,1.0,1.0*30
$GPRMC,212104.000,A,4648.978,N,09204.183,W,008.7,044.9,231220,000.0,W*67
$GPGGA,212105.000,4648.980,N,09204.181,W,1,12,1.0,0.0,M,0.0,M,,*71
$GPGSA,A,3,01,02,03,04,05,06,07,08,09,10,11,12,1.0,1.0,1.0*30
$GPRMC,212105.000,A,4648.980,N,09204.181,W,008.7,044.9,231220,000.0,W*63
$GPGGA,212106.000,4648.982,N,09204.179,W,1,12,1.0,0.0,M,0.0,M,,*77
$GPGSA,A,3,01,02,03,04,05,06,07,08,09,10,11,12,1.0,1.0,1.0*30
$GPRMC,212106.000,A,4648.982,N,09204.179,W,008.7,044.9,231220,000.0,W*65
$GPGGA,212107.000,4648.984,N,09204.177,W,1,12,1.0,0.0,M,0.0,M,,*7E
$GPGSA,A,3,01,02,03,04,05,06,07,08,09,10,11,12,1.0,1.0,1.0*30
$GPRMC,212107.000,A,4648.984,N,09204.177,W,006.1,063.4,231220,000.0,W*6C
$GPGGA,212108.000,4648.985,N,09204.175,W,1,12,1.0,0.0,M,0.0,M,,*72
$GPGSA,A,3,01,02,03,04,05,06,07,08,09,10,11,12,1.0,1.0,1.0*30
$GPRMC,212108.000,A,4648.985,N,09204.175,W,008.7,044.9,231220,000.0,W*60
$GPGGA,212109.000,4648.987,N,09204.173,W,1,12,1.0,0.0,M,0.0,M,,*77
$GPGSA,A,3,01,02,03,04,05,06,07,08,09,10,11,12,1.0,1.0,1.0*30
$GPRMC,212109.000,A,4648.987,N,09204.173,W,008.7,044.9,231220,000.0,W*65
$GPGGA,212110.000,4648.989,N,09204.171,W,1,12,1.0,0.0,M,0.0,M,,*73
$GPGSA,A,3,01,02,03,04,05,06,07,08,09,10,11,12,1.0,1.0,1.0*30
$GPRMC,212110.000,A,4648.989,N,09204.171,W,008.7,044.9,231220,000.0,W*61
$GPGGA,212111.000,4648.991,N,09204.169,W,1,12,1.0,0.0,M,0.0,M,,*72
$GPGSA,A,3,01,02,03,04,05,06,07,08,09,10,11,12,1.0,1.0,1.0*30
$GPRMC,212111.000,A,4648.991,N,09204.169,W,006.1,063.4,231220,000.0,W*60
$GPGGA,212112.000,4648.992,N,09204.167,W,1,12,1.0,0.0,M,0.0,M,,*7C
$GPGSA,A,3,01,02,03,04,05,06,07,08,09,10,11,12,1.0,1.0,1.0*30
$GPRMC,212112.000,A,4648.992,N,09204.167,W,007.6,026.5,231220,000.0,W*68
$GPGGA,212113.000,4648.994,N,09204.166,W,1,12,1.0,0.0,M,0.0,M,,*7A
$GPGSA,A,3,01,02,03,04,05,06,07,08,09,10,11,12,1.0,1.0,1.0*30
$GPRMC,212113.000,A,4648.994,N,09204.166,W,006.1,063.4,231220,000.0,W*68
$GPGGA,212114.000,4648.995,N,09204.164,W,1,12,1.0,0.0,M,0.0,M,,*7E
$GPGSA,A,3,01,02,03,04,05,06,07,08,09,10,11,12,1.0,1.0,1.0*30
$GPRMC,212114.000,A,4648.995,N,09204.164,W,011.9,033.6,231220,000.0,W*65
$GPGGA,212115.000,4648.998,N,09204.162,W,1,12,1.0,0.0,M,0.0,M,,*74
$GPGSA,A,3,01,02,03,04,05,06,07,08,09,10,11,12,1.0,1.0,1.0*30
$GPRMC,212115.000,A,4648.998,N,09204.162,W,010.3,056.2,231220,000.0,W*63
$GPGGA,212116.000,4649.000,N,09204.159,W,1,12,1.0,0.0,M,0.0,M,,*76
$GPGSA,A,3,01,02,03,04,05,06,07,08,09,10,11,12,1.0,1.0,1.0*30
$GPRMC,212116.000,A,4649.000,N,09204.159,W,008.2,071.5,231220,000.0,W*6B
$GPGGA,212117.000,4649.001,N,09204.156,W,1,12,1.0,0.0,M,0.0,M,,*79
$GPGSA,A,3,01,02,03,04,05,06,07,08,09,10,11,12,1.0,1.0,1.0*30
$GPRMC,212117.000,A,4649.001,N,09204.156,W,008.7,044.9,231220,000.0,W*6B
$GPGGA,212118.000,4649.003,N,09204.154,W,1,12,1.0,0.0,M,0.0,M,,*76
$GPGSA,A,3,01,02,03,04,05,06,07,08,09,10,11,12,1.0,1.0,1.0*30
$GPRMC,212118.000,A,4649.003,N,09204.154,W,008.2,071.5,231220,000.0,W*6B
$GPGGA,212119.000,4649.004,N,09204.151,W,1,12,1.0,0.0,M,0.0,M,,*75
$GPGSA,A,3,01,02,03,04,05,06,07,08,09,10,11,12,1.0,1.0,1.0*30
$GPRMC,212119.000,A,4649.004,N,09204.151,W,008.2,000.0,231220,000.0,W*6B
$GPGGA,212120.000,4649.004,N,09204.151,W,1,12,1.0,0.0,M,0.0,M,,*7F
$GPGSA,A,3,01,02,03,04,05,06,07,08,09,10,11,12,1.0,1.0,1.0*30
$GPRMC,212120.000,A,4649.004,N,09204.151,W,008.7,044.9,231220,000.0,W*6D
$GPGGA,212121.000,4649.006,N,09204.149,W,1,12,1.0,0.0,M,0.0,M,,*75
$GPGSA,A,3,01,02,03,04,05,06,07,08,09,10,11,12,1.0,1.0,1.0*30
$GPRMC,212121.000,A,4649.006,N,09204.149,W,007.4,090.0,231220,000.0,W*6B
$GPGGA,212122.000,4649.006,N,09204.146,W,1,12,1.0,0.0,M,0.0,M,,*79
$GPGSA,A,3,01,02,03,04,05,06,07,08,09,10,11,12,1.0,1.0,1.0*30
$GPRMC,212122.000,A,4649.006,N,09204.146,W,002.5,090.0,231220,000.0,W*63
$GPGGA,212123.000,4649.006,N,09204.145,W,1,12,1.0,0.0,M,0.0,M,,*7B
$GPGSA,A,3,01,02,03,04,05,06,07,08,09,10,11,12,1.0,1.0,1.0*30
$GPRMC,212123.000,A,4649.006,N,09204.145,W,008.2,108.5,231220,000.0,W*69
$GPGGA,212124.000,4649.005,N,09204.142,W,1,12,1.0,0.0,M,0.0,M,,*78
$GPGSA,A,3,01,02,03,04,05,06,07,08,09,10,11,12,1.0,1.0,1.0*30
$GPRMC,212124.000,A,4649.005,N,09204.142,W,006.1,116.7,231220,000.0,W*6A
$GPGGA,212125.000,4649.004,N,09204.140,W,1,12,1.0,0.0,M,0.0,M,,*7A
$GPGSA,A,3,01,02,03,04,05,06,07,08,09,10,11,12,1.0,1.0,1.0*30
$GPRMC,212125.000,A,4649.004,N,09204.140,W,007.6,153.5,231220,000.0,W*6D
$GPGGA,212126.000,4649.002,N,09204.139,W,1,12,1.0,0.0,M,0.0,M,,*71
$GPGSA,A,3,01,02,03,04,05,06,07,08,09,10,11,12,1.0,1.0,1.0*30
$GPRMC,212126.000,A,4649.002,N,09204.139,W,007.6,153.5,231220,000.0,W*66
$GPGGA,212127.000,4649.000,N,09204.138,W,1,12,1.0,0.0,M,0.0,M,,*73
$GPGSA,A,3,01,02,03,04,05,06,07,08,09,10,11,12,1.0,1.0,1.0*30
$GPRMC,212127.000,A,4649.000,N,09204.138,W,007.6,153.5,231220,000.0,W*64
$GPGGA,212128.000,4648.998,N,09204.137,W,1,12,1.0,0.0,M,0.0,M,,*7A
$GPGSA,A,3,01,02,03,04,05,06,07,08,09,10,11,12,1.0,1.0,1.0*30
$GPRMC,212128.000,A,4648.998,N,09204.137,W,011.9,146.4,231220,000.0,W*60
$GPGGA,212129.000,4648.995,N,09204.135,W,1,12,1.0,0.0,M,0.0,M,,*74
$GPGSA,A,3,01,02,03,04,05,06,07,08,09,10,11,12,1.0,1.0,1.0*30
$GPRMC,212129.000,A,4648.995,N,09204.135,W,008.7,135.1,231220,000.0,W*69
$GPGGA,212130.000,4648.993,N,09204.133,W,1,12,1.0,0.0,M,0.0,M,,*7C
$GPGSA,A,3,01,02,03,04,05,06,07,08,09,10,11,12,1.0,1.0,1.0*30
$GPRMC,212130.000,A,4648.993,N,09204.133,W,011.9,146.4,231220,000.0,W*66
$GPGGA,212131.000,4648.990,N,09204.131,W,1,12,1.0,0.0,M,0.0,M,,*7C
$GPGSA,A,3,01,02,03,04,05,06,07,08,09,10,11,12,1.0,1.0,1.0*30
$GPRMC,212131.000,A,4648.990,N,09204.131,W,011.9,146.4,231220,000.0,W*66
$GPGGA,212132.000,4648.987,N,09204.129,W,1,12,1.0,0.0,M,0.0,M,,*70
$GPGSA,A,3,01,02,03,04,05,06,07,08,09,10,11,12,1.0,1.0,1.0*30
$GPRMC,212132.000,A,4648.987,N,09204.129,W,007.6,153.5,231220,000.0,W*67
$GPGGA,212133.000,4648.985,N,09204.128,W,1,12,1.0,0.0,M,0.0,M,,*72
$GPGSA,A,3,01,02,03,04,05,06,07,08,09,10,11,12,1.0,1.0,1.0*30
$GPRMC,212133.000,A,4648.985,N,09204.128,W,013.1,135.1,231220,000.0,W*63
$GPGGA,212134.000,4648.982,N,09204.125,W,1,12,1.0,0.0,M,0.0,M,,*7F
$GPGSA,A,3,01,02,03,04,05,06,07,08,09,10,11,12,1.0,1.0,1.0*30
$GPRMC,212134.000,A,4648.982,N,09204.125,W,008.7,135.1,231220,000.0,W*62
$GPGGA,212135.000,4648.980,N,09204.123,W,1,12,1.0,0.0,M,0.0,M,,*7A
$GPGSA,A,3,01,02,03,04,05,06,07,08,09,10,11,12,1.0,1.0,1.0*30
$GPRMC,212135.000,A,4648.980,N,09204.123,W,013.1,135.1,231220,000.0,W*6B
$GPGGA,212136.000,4648.977,N,09204.120,W,1,12,1.0,0.0,M,0.0,M,,*72
$GPGSA,A,3,01,02,03,04,05,06,07,08,09,10,11,12,1.0,1.0,1.0*30
$GPRMC,212136.000,A,4648.977,N,09204.120,W,007.6,153.5,231220,000.0,W*65
$GPGGA,212137.000,4648.975,N,09204.119,W,1,12,1.0,0.0,M,0.0,M,,*7B
$GPGSA,A,3,01,02,03,04,05,06,07,08,09,10,11,12,1.0,1.0,1.0*30
$GPRMC,212137.000,A,4648.975,N,09204.119,W,013.1,135.1,231220,000.0,W*6A
$GPGGA,212138.000,4648.972,N,09204.116,W,1,12,1.0,0.0,M,0.0,M,,*7C
$GPGSA,A,3,01,02,03,04,05,06,07,08,09,10,11,12,1.0,1.0,1.0*30
$GPRMC,212138.000,A,4648.972,N,09204.116,W,008.7,135.1,231220,000.0,W*61
$GPGGA,212139.000,4648.970,N,09204.114,W,1,12,1.0,0.0,M,0.0,M,,*7D
$GPGSA,A,3,01,02,03,04,05,06,07,08,09,10,11,12,1.0,1.0,1.0*30
$GPRMC,212139.000,A,4648.970,N,09204.114,W,010.3,123.8,231220,000.0,W*63
$GPGGA,212140.000,4648.968,N,09204.111,W,1,12,1.0,0.0,M,0.0,M,,*7F
$GPGSA,A,3,01,02,03,04,05,06,07,08,09,10,11,12,1.0,1.0,1.0*30
$GPRMC,212140.000,A,4648.968,N,09204.111,W,008.7,135.1,231220,000.0,W*62
$GPGGA,212141.000,4648.966,N,09204.109,W,1,12,1.0,0.0,M,0.0,M,,*79
$GPGSA,A,3,01,02,03,04,05,06,07,08,09,10,11,12,1.0,1.0,1.0*30
$GPRMC,212141.000,A,4648.966,N,09204.109,W,006.1,116.7,231220,000.0,W*6B
$GPGGA,212142.000,4648.965,N,09204.107,W,1,12,1.0,0.0,M,0.0,M,,*77
$GPGSA,A,3,01,02,03,04,05,06,07,08,09,10,11,12,1.0,1.0,1.0*30
$GPRMC,212142.000,A,4648.965,N,09204.107,W,010.3,123.8,231220,000.0,W*69
$GPGGA,212143.000,4648.963,N,09204.104,W,1,12,1.0,0.0,M,0.0,M,,*73
$GPGSA,A,3,01,02,03,04,05,06,07,08,09,10,11,12,1.0,1.0,1.0*30
$GPRMC,212143.000,A,4648.963,N,09204.104,W,002.5,090.0,231220,000.0,W*69
$GPGGA,212144.000,4648.963,N,09204.103,W,1,12,1.0,0.0,M,0.0,M,,*73
$GPGSA,A,3,01,02,03,04,05,06,07,08,09,10,11,12,1.0,1.0,1.0*30
$GPRMC,212144.000,A,4648.963,N,09204.103,W,003.6,180.0,231220,000.0,W*6B
$GPGGA,212145.000,4648.962,N,09204.103,W,1,12,1.0,0.0,M,0.0,M,,*73
$GPGSA,A,3,01,02,03,04,05,06,07,08,09,10,11,12,1.0,1.0,1.0*30
$GPRMC,212145.000,A,4648.962,N,09204.103,W,006.1,116.6,231220,000.0,W*60
$GPGGA,212146.000,4648.961,N,09204.101,W,1,12,1.0,0.0,M,0.0,M,,*71
$GPGSA,A,3,01,02,03,04,05,06,07,08,09,10,11,12,1.0,1.0,1.0*30
$GPRMC,212146.000,A,4648.961,N,09204.101,W,004.9,090.0,231220,000.0,W*61
$GPGGA,212147.000,4648.961,N,09204.099,W,1,12,1.0,0.0,M,0.0,M,,*70
$GPGSA,A,3,01,02,03,04,05,06,07,08,09,10,11,12,1.0,1.0,1.0*30
$GPRMC,212147.000,A,4648.961,N,09204.099,W,007.4,090.0,231220,000.0,W*6E
$GPGGA,212148.000,4648.961,N,09204.096,W,1,12,1.0,0.0,M,0.0,M,,*70
$GPGSA,A,3,01,02,03,04,05,06,07,08,09,10,11,12,1.0,1.0,1.0*30
$GPRMC,212148.000,A,4648.961,N,09204.096,W,007.4,090.0,231220,000.0,W*6E
$GPGGA,212149.000,4648.961,N,09204.093,W,1,12,1.0,0.0,M,0.0,M,,*74
$GPGSA,A,3,01,02,03,04,05,06,07,08,09,10,11,12,1.0,1.0,1.0*30
$GPRMC,212149.000,A,4648.961,N,09204.093,W,008.2,071.5,231220,000.0,W*69
$GPGGA,212150.000,4648.962,N,09204.090,W,1,12,1.0,0.0,M,0.0,M,,*7C
$GPGSA,A,3,01,02,03,04,05,06,07,08,09,10,11,12,1.0,1.0,1.0*30
$GPRMC,212150.000,A,4648.962,N,09204.090,W,006.1,063.4,231220,000.0,W*6E
$GPGGA,212151.000,4648.963,N,09204.088,W,1,12,1.0,0.0,M,0.0,M,,*75
$GPGSA,A,3,01,02,03,04,05,06,07,08,09,10,11,12,1.0,1.0,1.0*30
$GPRMC,212151.000,A,4648.963,N,09204.088,W,008.2,071.5,231220,000.0,W*68
$GPGGA,212152.000,4648.964,N,09204.085,W,1,12,1.0,0.0,M,0.0,M,,*7C
$GPGSA,A,3,01,02,03,04,05,06,07,08,09,10,11,12,1.0,1.0,1.0*30
$GPRMC,212152.000,A,4648.964,N,09204.085,W,008.2,071.5,231220,000.0,W*61
$GPGGA,212153.000,4648.965,N,09204.082,W,1,12,1.0,0.0,M,0.0,M,,*7B
$GPGSA,A,3,01,02,03,04,05,06,07,08,09,10,11,12,1.0,1.0,1.0*30
$GPRMC,212153.000,A,4648.965,N,09204.082,W,006.1,063.3,231220,000.0,W*6E
$GPGGA,212154.000,4648.966,N,09204.080,W,1,12,1.0,0.0,M,0.0,M,,*7D
$GPGSA,A,3,01,02,03,04,05,06,07,08,09,10,11,12,1.0,1.0,1.0*30
$GPRMC,212154.000,A,4648.966,N,09204.080,W,008.2,071.5,231220,000.0,W*60
$GPGGA,212155.000,4648.967,N,09204.077,W,1,12,1.0,0.0,M,0.0,M,,*75
$GPGSA,A,3,01,02,03,04,05,06,07,08,09,10,11,12,1.0,1.0,1.0*30
$GPRMC,212155.000,A,4648.967,N,09204.077,W,008.7,044.9,231220,000.0,W*67
$GPGGA,212156.000,4648.969,N,09204.075,W,1,12,1.0,0.0,M,0.0,M,,*7A
$GPGSA,A,3,01,02,03,04,05,06,07,08,09,10,11,12,1.0,1.0,1.0*30
$GPRMC,212156.000,A,4648.969,N,09204.075,W,008.7,044.9,231220,000.0,W*68
$GPGGA,212157.000,4648.971,N,09204.073,W,1,12,1.0,0.0,M,0.0,M,,*74
$GPGSA,A,3,01,02,03,04,05,06,07,08,09,10,11,12,1.0,1.0,1.0*30
$GPRMC,212157.000,A,4648.971,N,09204.073,W,008.2,071.5,231220,000.0,W*69
$GPGGA,212158.000,4648.972,N,09204.070,W,1,12,1.0,0.0,M,0.0,M,,*7B
$GPGSA,A,3,01,02,03,04,05,06,07,08,09,10,11,12,1.0,1.0,1.0*30
$GPRMC,212158.000,A,4648.972,N,09204.070,W,008.7,044.9,231220,000.0,W*69
$GPGGA,212159.000,4648.974,N,09204.068,W,1,12,1.0,0.0,M,0.0,M,,*75
$GPGSA,A,3,01,02,03,04,05,06,07,08,09,10,11,12,1.0,1.0,1.0*30
$GPRMC,212159.000,A,4648.974,N,09204.068,W,010.5,075.9,231220,000.0,W*6E
$GPGGA,212200.000,4648.975,N,09204.064,W,1,12,1.0,0.0,M,0.0,M,,*77
$GPGSA,A,3,01,02,03,04,05,06,07,08,09,10,11,12,1.0,1.0,1.0*30
$GPRMC,212200.000,A,4648.975,N,09204.064,W,011.9,033.6,231220,000.0,W*6C
$GPGGA,212201.000,4648.978,N,09204.062,W,1,12,1.0,0.0,M,0.0,M,,*7D
$GPGSA,A,3,01,02,03,04,05,06,07,08,09,10,11,12,1.0,1.0,1.0*30
$GPRMC,212201.000,A,4648.978,N,09204.062,W,007.4,090.0,231220,000.0,W*63
$GPGGA,212202.000,4648.978,N,09204.059,W,1,12,1.0,0.0,M,0.0,M,,*76
$GPGSA,A,3,01,02,03,04,05,06,07,08,09,10,11,12,1.0,1.0,1.0*30
$GPRMC,212202.000,A,4648.978,N,09204.059,W,014.6,053.0,231220,000.0,W*67
$GPGGA,212203.000,4648.981,N,09204.055,W,1,12,1.0,0.0,M,0.0,M,,*7D
$GPGSA,A,3,01,02,03,04,05,06,07,08,09,10,11,12,1.0,1.0,1.0*30
$GPRMC,212203.000,A,4648.981,N,09204.055,W,010.3,056.2,231220,000.0,W*6A
$GPGGA,212204.000,4648.983,N,09204.052,W,1,12,1.0,0.0,M,0.0,M,,*7F
$GPGSA,A,3,01,02,03,04,05,06,07,08,09,10,11,12,1.0,1.0,1.0*30
$GPRMC,212204.000,A,4648.983,N,09204.052,W,013.1,044.9,231220,000.0,W*61
$GPGGA,212205.000,4648.986,N,09204.049,W,1,12,1.0,0.0,M,0.0,M,,*71
$GPGSA,A,3,01,02,03,04,05,06,07,08,09,10,11,12,1.0,1.0,1.0*30
$GPRMC,212205.000,A,4648.986,N,09204.049,W,010.3,056.2,231220,000.0,W*66
$GPGGA,212206.000,4648.988,N,09204.046,W,1,12,1.0,0.0,M,0.0,M,,*73
$GPGSA,A,3,01,02,03,04,05,06,07,08,09,10,11,12,1.0,1.0,1.0*30
$GPRMC,212206.000,A,4648.988,N,09204.046,W,010.3,056.2,231220,000.0,W*64
$GPGGA,212207.000,4648.990,N,09204.043,W,1,12,1.0,0.0,M,0.0,M,,*7E
$GPGSA,A,3,01,02,03,04,05,06,07,08,09,10,11,12,1.0,1.0,1.0*30
$GPRMC,212207.000,A,4648.990,N,09204.043,W,013.1,044.9,231220,000.0,W*60
$GPGGA,212208.000,4648.993,N,09204.040,W,1,12,1.0,0.0,M,0.0,M,,*71
$GPGSA,A,3,01,02,03,04,05,06,07,08,09,10,11,12,1.0,1.0,1.0*30
$GPRMC,212208.000,A,4648.993,N,09204.040,W,012.2,063.4,231220,000.0,W*65
$GPGGA,212209.000,4648.995,N,09204.036,W,1,12,1.0,0.0,M,0.0,M,,*77
$GPGSA,A,3,01,02,03,04,05,06,07,08,09,10,11,12,1.0,1.0,1.0*30
$GPRMC,212209.000,A,4648.995,N,09204.036,W,013.1,044.9,231220,000.0,W*69
$GPGGA,212210.000,4648.998,N,09204.033,W,1,12,1.0,0.0,M,0.0,M,,*77
$GPGSA,A,3,01,02,03,04,05,06,07,08,09,10,11,12,1.0,1.0,1.0*30
$GPRMC,212210.000,A,4648.998,N,09204.033,W,013.1,044.9,231220,000.0,W*69
$GPGGA,212211.000,4649.001,N,09204.030,W,1,12,1.0,0.0,M,0.0,M,,*7D
$GPGSA,A,3,01,02,03,04,05,06,07,08,09,10,11,12,1.0,1.0,1.0*30
$GPRMC,212211.000,A,4649.001,N,09204.030,W,014.6,053.0,231220,000.0,W*6C
$GPGGA,212212.000,4649.004,N,09204.026,W,1,12,1.0,0.0,M,0.0,M,,*7C
$GPGSA,A,3,01,02,03,04,05,06,07,08,09,10,11,12,1.0,1.0,1.0*30
$GPRMC,212212.000,A,4649.004,N,09204.026,W,010.3,056.2,231220,000.0,W*6B
$GPGGA,212213.000,4649.006,N,09204.023,W,1,12,1.0,0.0,M,0.0,M,,*7A
$GPGSA,A,3,01,02,03,04,05,06,07,08,09,10,11,12,1.0,1.0,1.0*30
$GPRMC,212213.000,A,4649.006,N,09204.023,W,013.1,044.9,231220,000.0,W*64
$GPGGA,212214.000,4649.009,N,09204.020,W,1,12,1.0,0.0,M,0.0,M,,*71
$GPGSA,A,3,01,02,03,04,05,06,07,08,09,10,11,12,1.0,1.0,1.0*30
$GPRMC,212214.000,A,4649.009,N,09204.020,W,011.9,033.6,231220,000.0,W*6A
$GPGGA,212215.000,4649.012,N,09204.018,W,1,12,1.0,0.0,M,0.0,M,,*71
$GPGSA,A,3,01,02,03,04,05,06,07,08,09,10,11,12,1.0,1.0,1.0*30
$GPRMC,212215.000,A,4649.012,N,09204.018,W,008.7,044.9,231220,000.0,W*63
$GPGGA,212216.000,4649.014,N,09204.016,W,1,12,1.0,0.0,M,0.0,M,,*7A
$GPGSA,A,3,01,02,03,04,05,06,07,08,09,10,11,12,1.0,1.0,1.0*30
$GPRMC,212216.000,A,4649.014,N,09204.016,W,016.2,036.8,231220,000.0,W*66
$GPGGA,212217.000,4649.018,N,09204.013,W,1,12,1.0,0.0,M,0.0,M,,*72
$GPGSA,A,3,01,02,03,04,05,06,07,08,09,10,11,12,1.0,1.0,1.0*30
$GPRMC,212217.000,A,4649.018,N,09204.013,W,013.1,044.9,231220,000.0,W*6C
$GPGGA,212218.000,4649.021,N,09204.010,W,1,12,1.0,0.0,M,0.0,M,,*74
$GPGSA,A,3,01,02,03,04,05,06,07,08,09,10,11,12,1.0,1.0,1.0*30
$GPRMC,212218.000,A,4649.021,N,09204.010,W,013.1,044.9,231220,000.0,W*6A
$GPGGA,212219.000,4649.024,N,09204.007,W,1,12,1.0,0.0,M,0.0,M,,*76
$GPGSA,A,3,01,02,03,04,05,06,07,08,09,10,11,12,1.0,1.0,1.0*30
$GPRMC,212219.000,A,4649.024,N,09204.007,W,016.2,036.8,231220,000.0,W*6A
$GPGGA,212220.000,4649.028,N,09204.004,W,1,12,1.0,0.0,M,0.0,M,,*73
$GPGSA,A,3,01,02,03,04,05,06,07,08,09,10,11,12,1.0,1.0,1.0*30
$GPRMC,212220.000,A,4649.028,N,09204.004,W,011.9,033.6,231220,000.0,W*68
$GPGGA,212221.000,4649.031,N,09204.002,W,1,12,1.0,0.0,M,0.0,M,,*7C
$GPGSA,A,3,01,02,03,04,05,06,07,08,09,10,11,12,1.0,1.0,1.0*30
$GPRMC,212221.000,A,4649.031,N,09204.002,W,008.7,044.9,231220,000.0,W*6E
$GPGGA,212222.000,4649.033,N,09204.000,W,1,12,1.0,0.0,M,0.0,M,,*7F
$GPGSA,A,3,01,02,03,04,05,06,07,08,09,10,11,12,1.0,1.0,1.0*30
$GPRMC,212222.000,A,4649.033,N,09204.000,W,011.9,033.6,231220,000.0,W*64
$GPGGA,212223.000,4649.036,N,09203.998,W,1,12,1.0,0.0,M,0.0,M,,*74
$GPGSA,A,3,01,02,03,04,05,06,07,08,09,10,11,12,1.0,1.0,1.0*30
$GPRMC,212223.000,A,4649.036,N,09203.998,W,011.1,018.4,231220,000.0,W*6C
$GPGGA,212224.000,4649.039,N,09203.997,W,1,12,1.0,0.0,M,0.0,M,,*73
$GPGSA,A,3,01,02,03,04,05,06,07,08,09,10,11,12,1.0,1.0,1.0*30
$GPRMC,212224.000,A,4649.039,N,09203.997,W,011.9,033.6,231220,000.0,W*68
$GPGGA,212225.000,4649.042,N,09203.995,W,1,12,1.0,0.0,M,0.0,M,,*7C
$GPGSA,A,3,01,02,03,04,05,06,07,08,09,10,11,12,1.0,1.0,1.0*30
$GPRMC,212225.000,A,4649.042,N,09203.995,W,008.7,044.9,231220,000.0,W*6E
$GPGGA,212226.000,4649.044,N,09203.993,W,1,12,1.0,0.0,M,0.0,M,,*7F
$GPGSA,A,3,01,02,03,04,05,06,07,08,09,10,11,12,1.0,1.0,1.0*30
$GPRMC,212226.000,A,4649.044,N,09203.993,W,014.6,014.0,231220,000.0,W*6D
$GPGGA,212227.000,4649.048,N,09203.992,W,1,12,1.0,0.0,M,0.0,M,,*73
$GPGSA,A,3,01,02,03,04,05,06,07,08,09,10,11,12,1.0,1.0,1.0*30
$GPRMC,212227.000,A,4649.048,N,09203.992,W,015.2,026.5,231220,000.0,W*60
$GPGGA,212228.000,4649.052,N,09203.990,W,1,12,1.0,0.0,M,0.0,M,,*75
$GPGSA,A,3,01,02,03,04,05,06,07,08,09,10,11,12,1.0,1.0,1.0*30
$GPRMC,212228.000,A,4649.052,N,09203.990,W,011.9,033.6,231220,000.0,W*6E
$GPGGA,212229.000,4649.055,N,09203.988,W,1,12,1.0,0.0,M,0.0,M,,*7A
$GPGSA,A,3,01,02,03,04,05,06,07,08,09,10,11,12,1.0,1.0,1.0*30
$GPRMC,212229.000,A,4649.055,N,09203.988,W,011.9,033.6,231220,000.0,W*61
$GPGGA,212230.000,4649.058,N,09203.986,W,1,12,1.0,0.0,M,0.0,M,,*71
$GPGSA,A,3,01,02,03,04,05,06,07,08,09,10,11,12,1.0,1.0,1.0*30
$GPRMC,212230.000,A,4649.058,N,09203.986,W,008.7,044.9,231220,000.0,W*63
$GPGGA,212231.000,4649.060,N,09203.984,W,1,12,1.0,0.0,M,0.0,M,,*79
$GPGSA,A,3,01,02,03,04,05,06,07,08,09,10,11,12,1.0,1.0,1.0*30
$GPRMC,212231.000,A,4649.060,N,09203.984,W,016.2,036.8,231220,000.0,W*65
$GPGGA,212232.000,4649.064,N,09203.981,W,1,12,1.0,0.0,M,0.0,M,,*7B
$GPGSA,A,3,01,02,03,04,05,06,07,08,09,10,11,12,1.0,1.0,1.0*30
$GPRMC,212232.000,A,4649.064,N,09203.981,W,010.3,056.2,231220,000.0,W*6C
$GPGGA,212233.000,4649.066,N,09203.978,W,1,12,1.0,0.0,M,0.0,M,,*7E
$GPGSA,A,3,01,02,03,04,05,06,07,08,09,10,11,12,1.0,1.0,1.0*30
$GPRMC,212233.000,A,4649.066,N,09203.978,W,010.3,056.2,231220,000.0,W*69
$GPGGA,212234.000,4649.068,N,09203.975,W,1,12,1.0,0.0,M,0.0,M,,*7A
$GPGSA,A,3,01,02,03,04,05,06,07,08,09,10,11,12,1.0,1.0,1.0*30
$GPRMC,212234.000,A,4649.068,N,09203.975,W,017.5,044.9,231220,000.0,W*64
$GPGGA,212235.000,4649.072,N,09203.971,W,1,12,1.0,0.0,M,0.0,M,,*74
$GPGSA,A,3,01,02,03,04,05,06,07,08,09,10,11,12,1.0,1.0,1.0*30
$GPRMC,212235.000,A,4649.072,N,09203.971,W,014.3,068.1,231220,000.0,W*69
$GPGGA,212236.000,4649.074,N,09203.966,W,1,12,1.0,0.0,M,0.0,M,,*77
$GPGSA,A,3,01,02,03,04,05,06,07,08,09,10,11,12,1.0,1.0,1.0*30
$GPRMC,212236.000,A,4649.074,N,09203.966,W,014.6,053.0,231220,000.0,W*66
$GPGGA,212237.000,4649.077,N,09203.962,W,1,12,1.0,0.0,M,0.0,M,,*71
$GPGSA,A,3,01,02,03,04,05,06,07,08,09,10,11,12,1.0,1.0,1.0*30
$GPRMC,212237.000,A,4649.077,N,09203.962,W,016.5,071.5,231220,000.0,W*64
$GPGGA,212238.000,4649.079,N,09203.956,W,1,12,1.0,0.0,M,0.0,M,,*77
$GPGSA,A,3,01,02,03,04,05,06,07,08,09,10,11,12,1.0,1.0,1.0*30
$GPRMC,212238.000,A,4649.079,N,09203.956,W,014.3,068.1,231220,000.0,W*6A
$GPGGA,212239.000,4649.081,N,09203.951,W,1,12,1.0,0.0,M,0.0,M,,*76
$GPGSA,A,3,01,02,03,04,05,06,07,08,09,10,11,12,1.0,1.0,1.0*30
$GPRMC,212239.000,A,4649.081,N,09203.951,W,010.5,075.9,231220,000.0,W*6D
$GPGGA,212240.000,4649.082,N,09203.947,W,1,12,1.0,0.0,M,0.0,M,,*7C
$GPGSA,A,3,01,02,03,04,05,06,07,08,09,10,11,12,1.0,1.0,1.0*30
$GPRMC,212240.000,A,4649.082,N,09203.947,W,016.5,071.5,231220,000.0,W*69
$GPGGA,212241.000,4649.084,N,09203.941,W,1,12,1.0,0.0,M,0.0,M,,*7D
$GPGSA,A,3,01,02,03,04,05,06,07,08,09,10,11,12,1.0,1.0,1.0*30
$GPRMC,212241.000,A,4649.084,N,09203.941,W,015.2,080.5,231220,000.0,W*62
$GPGGA,212242.000,4649.085,N,09203.935,W,1,12,1.0,0.0,M,0.0,M,,*7C
$GPGSA,A,3,01,02,03,04,05,06,07,08,09,10,11,12,1.0,1.0,1.0*30
$GPRMC,212242.000,A,4649.085,N,09203.935,W,016.4,058.9,231220,000.0,W*6F
$GPGGA,212243.000,4649.088,N,09203.930,W,1,12,1.0,0.0,M,0.0,M,,*75
$GPGSA,A,3,01,02,03,04,05,06,07,08,09,10,11,12,1.0,1.0,1.0*30
$GPRMC,212243.000,A,4649.088,N,09203.930,W,014.3,068.1,231220,000.0,W*68
$GPGGA,212244.000,4649.090,N,09203.925,W,1,12,1.0,0.0,M,0.0,M,,*7F
$GPGSA,A,3,01,02,03,04,05,06,07,08,09,10,11,12,1.0,1.0,1.0*30
$GPRMC,212244.000,A,4649.090,N,09203.925,W,014.3,068.1,231220,000.0,W*62
$GPGGA,212245.000,4649.092,N,09203.920,W,1,12,1.0,0.0,M,0.0,M,,*79
$GPGSA,A,3,01,02,03,04,05,06,07,08,09,10,11,12,1.0,1.0,1.0*30
$GPRMC,212245.000,A,4649.092,N,09203.920,W,014.8,090.0,231220,000.0,W*69
$GPGGA,212246.000,4649.092,N,09203.914,W,1,12,1.0,0.0,M,0.0,M,,*7D
$GPGSA,A,3,01,02,03,04,05,06,07,08,09,10,11,12,1.0,1.0,1.0*30
$GPRMC,212246.000,A,4649.092,N,09203.914,W,012.8,078.6,231220,000.0,W*6B
$GPGGA,212247.000,4649.093,N,09203.909,W,1,12,1.0,0.0,M,0.0,M,,*71
$GPGSA,A,3,01,02,03,04,05,06,07,08,09,10,11,12,1.0,1.0,1.0*30
$GPRMC,212247.000,A,4649.093,N,09203.909,W,014.3,068.1,231220,000.0,W*6C
$GPGGA,212248.000,4649.095,N,09203.904,W,1,12,1.0,0.0,M,0.0,M,,*75
$GPGSA,A,3,01,02,03,04,05,06,07,08,09,10,11,12,1.0,1.0,1.0*30
$GPRMC,212248.000,A,4649.095,N,09203.904,W,012.8,078.7,231220,000.0,W*62
$GPGGA,212249.000,4649.096,N,09203.899,W,1,12,1.0,0.0,M,0.0,M,,*72
$GPGSA,A,3,01,02,03,04,05,06,07,08,09,10,11,12,1.0,1.0,1.0*30
$GPRMC,212249.000,A,4649.096,N,09203.899,W,012.2,063.4,231220,000.0,W*66
$GPGGA,212250.000,4649.098,N,09203.895,W,1,12,1.0,0.0,M,0.0,M,,*78
$GPGSA,A,3,01,02,03,04,05,06,07,08,09,10,11,12,1.0,1.0,1.0*30
$GPRMC,212250.000,A,4649.098,N,09203.895,W,012.8,078.7,231220,000.0,W*6F
$GPGGA,212251.000,4649.099,N,09203.890,W,1,12,1.0,0.0,M,0.0,M,,*7D
$GPGSA,A,3,01,02,03,04,05,06,07,08,09,10,11,12,1.0,1.0,1.0*30
$GPRMC,212251.000,A,4649.099,N,09203.890,W,012.2,063.4,231220,000.0,W*69
$GPGGA,212252.000,4649.101,N,09203.886,W,1,12,1.0,0.0,M,0.0,M,,*79
$GPGSA,A,3,01,02,03,04,05,06,07,08,09,10,11,12,1.0,1.0,1.0*30
$GPRMC,212252.000,A,4649.101,N,09203.886,W,012.8,078.7,231220,000.0,W*6E
$GPGGA,212253.000,4649.102,N,09203.881,W,1,12,1.0,0.0,M,0.0,M,,*7C
$GPGSA,A,3,01,02,03,04,05,06,07,08,09,10,11,12,1.0,1.0,1.0*30
$GPRMC,212253.000,A,4649.102,N,09203.881,W,012.2,063.4,231220,000.0,W*68
$GPGGA,212254.000,4649.104,N,09203.877,W,1,12,1.0,0.0,M,0.0,M,,*74
$GPGSA,A,3,01,02,03,04,05,06,07,08,09,10,11,12,1.0,1.0,1.0*30
$GPRMC,212254.000,A,4649.104,N,09203.877,W,012.2,063.4,231220,000.0,W*60
$GPGGA,212255.000,4649.106,N,09203.873,W,1,12,1.0,0.0,M,0.0,M,,*73
$GPGSA,A,3,01,02,03,04,05,06,07,08,09,10,11,12,1.0,1.0,1.0*30
$GPRMC,212255.000,A,4649.106,N,09203.873,W,010.5,075.9,231220,000.0,W*68
$GPGGA,212256.000,4649.107,N,09203.869,W,1,12,1.0,0.0,M,0.0,M,,*7A
$GPGSA,A,3,01,02,03,04,05,06,07,08,09,10,11,12,1.0,1.0,1.0*30
$GPRMC,212256.000,A,4649.107,N,09203.869,W,010.5,075.9,231220,000.0,W*61
$GPGGA,212257.000,4649.108,N,09203.865,W,1,12,1.0,0.0,M,0.0,M,,*78
$GPGSA,A,3,01,02,03,04,05,06,07,08,09,10,11,12,1.0,1.0,1.0*30
$GPRMC,212257.000,A,4649.108,N,09203.865,W,014.6,053.0,231220,000.0,W*69
$GPGGA,212258.000,4649.111,N,09203.861,W,1,12,1.0,0.0,M,0.0,M,,*7B
$GPGSA,A,3,01,02,03,04,05,06,07,08,09,10,11,12,1.0,1.0,1.0*30
$GPRMC,212258.000,A,4649.111,N,09203.861,W,006.1,063.4,231220,000.0,W*69
$GPGGA,212259.000,4649.112,N,09203.859,W,1,12,1.0,0.0,M,0.0,M,,*72
$GPGSA,A,3,01,02,03,04,05,06,07,08,09,10,11,12,1.0,1.0,1.0*30
$GPRMC,212259.000,A,4649.112,N,09203.859,W,011.9,033.6,231220,000.0,W*69
$GPGGA,212300.000,4649.115,N,09203.857,W,1,12,1.0,0.0,M,0.0,M,,*76
$GPGSA,A,3,01,02,03,04,05,06,07,08,09,10,11,12,1.0,1.0,1.0*30
$GPRMC,212300.000,A,4649.115,N,09203.857,W,007.4,090.0,231220,000.0,W*68
$GPGGA,212301.000,4649.115,N,09203.854,W,1,12,1.0,0.0,M,0.0,M,,*74
$GPGSA,A,3,01,02,03,04,05,06,07,08,09,10,11,12,1.0,1.0,1.0*30
$GPRMC,212301.000,A,4649.115,N,09203.854,W,014.6,053.0,231220,000.0,W*65
$GPGGA,212302.000,4649.118,N,09203.850,W,1,12,1.0,0.0,M,0.0,M,,*7E
$GPGSA,A,3,01,02,03,04,05,06,07,08,09,10,11,12,1.0,1.0,1.0*30
$GPRMC,212302.000,A,4649.118,N,09203.850,W,010.3,056.2,231220,000.0,W*69
$GPGGA,212303.000,4649.120,N,09203.847,W,1,12,1.0,0.0,M,0.0,M,,*72
$GPGSA,A,3,01,02,03,04,05,06,07,08,09,10,11,12,1.0,1.0,1.0*30
$GPRMC,212303.000,A,4649.120,N,09203.847,W,010.3,056.2,231220,000.0,W*65
$GPGGA,212304.000,4649.122,N,09203.844,W,1,12,1.0,0.0,M,0.0,M,,*74
$GPGSA,A,3,01,02,03,04,05,06,07,08,09,10,11,12,1.0,1.0,1.0*30
$GPRMC,212304.000,A,4649.122,N,09203.844,W,014.6,053.0,231220,000.0,W*65
$GPGGA,212305.000,4649.125,N,09203.840,W,1,12,1.0,0.0,M,0.0,M,,*76
$GPGSA,A,3,01,02,03,04,05,06,07,08,09,10,11,12,1.0,1.0,1.0*30
$GPRMC,212305.000,A,4649.125,N,09203.840,W,012.2,063.4,231220,000.0,W*62
$GPGGA,212306.000,4649.127,N,09203.836,W,1,12,1.0,0.0,M,0.0,M,,*76
$GPGSA,A,3,01,02,03,04,05,06,07,08,09,10,11,12,1.0,1.0,1.0*30
$GPRMC,212306.000,A,4649.127,N,09203.836,W,013.1,044.9,231220,000.0,W*68
$GPGGA,212307.000,4649.130,N,09203.833,W,1,12,1.0,0.0,M,0.0,M,,*74
$GPGSA,A,3,01,02,03,04,05,06,07,08,09,10,11,12,1.0,1.0,1.0*30
$GPRMC,212307.000,A,4649.130,N,09203.833,W,014.6,053.0,231220,000.0,W*65
$GPGGA,212308.000,4649.133,N,09203.829,W,1,12,1.0,0.0,M,0.0,M,,*73
$GPGSA,A,3,01,02,03,04,05,06,07,08,09,10,11,12,1.0,1.0,1.0*30
$GPRMC,212308.000,A,4649.133,N,09203.829,W,008.7,044.9,231220,000.0,W*61
$GPGGA,212309.000,4649.135,N,09203.827,W,1,12,1.0,0.0,M,0.0,M,,*7A
$GPGSA,A,3,01,02,03,04,05,06,07,08,09,10,11,12,1.0,1.0,1.0*30
$GPRMC,212309.000,A,4649.135,N,09203.827,W,012.2,063.4,231220,000.0,W*6E
$GPGGA,212310.000,4649.137,N,09203.823,W,1,12,1.0,0.0,M,0.0,M,,*74
$GPGSA,A,3,01,02,03,04,05,06,07,08,09,10,11,12,1.0,1.0,1.0*30
$GPRMC,212310.000,A,4649.137,N,09203.823,W,011.9,033.6,231220,000.0,W*6F
$GPGGA,212311.000,4649.140,N,09203.821,W,1,12,1.0,0.0,M,0.0,M,,*77
$GPGSA,A,3,01,02,03,04,05,06,07,08,09,10,11,12,1.0,1.0,1.0*30
$GPRMC,212311.000,A,4649.140,N,09203.821,W,013.1,044.9,231220,000.0,W*69
$GPGGA,212312.000,4649.143,N,09203.818,W,1,12,1.0,0.0,M,0.0,M,,*7D
$GPGSA,A,3,01,02,03,04,05,06,07,08,09,10,11,12,1.0,1.0,1.0*30
$GPRMC,212312.000,A,4649.143,N,09203.818,W,013.1,044.9,231220,000.0,W*63
$GPGGA,212313.000,4649.146,N,09203.815,W,1,12,1.0,0.0,M,0.0,M,,*74
$GPGSA,A,3,01,02,03,04,05,06,07,08,09,10,11,12,1.0,1.0,1.0*30
$GPRMC,212313.000,A,4649.146,N,09203.815,W,013.1,044.9,231220,000.0,W*6A
$GPGGA,212314.000,4649.149,N,09203.812,W,1,12,1.0,0.0,M,0.0,M,,*7B
$GPGSA,A,3,01,02,03,04,05,06,07,08,09,10,11,12,1.0,1.0,1.0*30
$GPRMC,212314.000,A,4649.149,N,09203.812,W,012.2,063.4,231220,000.0,W*6F
$GPGGA,212315.000,4649.151,N,09203.808,W,1,12,1.0,0.0,M,0.0,M,,*78
$GPGSA,A,3,01,02,03,04,05,06,07,08,09,10,11,12,1.0,1.0,1.0*30
$GPRMC,212315.000,A,4649.151,N,09203.808,W,016.4,059.0,231220,000.0,W*63
$GPGGA,212316.000,4649.154,N,09203.803,W,1,12,1.0,0.0,M,0.0,M,,*75
$GPGSA,A,3,01,02,03,04,05,06,07,08,09,10,11,12,1.0,1.0,1.0*30
$GPRMC,212316.000,A,4649.154,N,09203.803,W,013.1,044.9,231220,000.0,W*6B
$GPGGA,212317.000,4649.157,N,09203.800,W,1,12,1.0,0.0,M,0.0,M,,*74
$GPGSA,A,3,01,02,03,04,05,06,07,08,09,10,11,12,1.0,1.0,1.0*30
$GPRMC,212317.000,A,4649.157,N,09203.800,W,012.2,063.3,231220,000.0,W*67
$GPGGA,212318.000,4649.159,N,09203.796,W,1,12,1.0,0.0,M,0.0,M,,*75
$GPGSA,A,3,01,02,03,04,05,06,07,08,09,10,11,12,1.0,1.0,1.0*30
$GPRMC,212318.000,A,4649.159,N,09203.796,W,014.6,053.0,231220,000.0,W*64
$GPGGA,212319.000,4649.162,N,09203.792,W,1,12,1.0,0.0,M,0.0,M,,*78
$GPGSA,A,3,01,02,03,04,05,06,07,08,09,10,11,12,1.0,1.0,1.0*30
$GPRMC,212319.000,A,4649.162,N,09203.792,W,013.1,044.9,231220,000.0,W*66
$GPGGA,212320.000,4649.165,N,09203.789,W,1,12,1.0,0.0,M,0.0,M,,*7F
$GPGSA,A,3,01,02,03,04,05,06,07,08,09,10,11,12,1.0,1.0,1.0*30
$GPRMC,212320.000,A,4649.165,N,09203.789,W,013.1,044.9,231220,000.0,W*61
$GPGGA,212321.000,4649.168,N,09203.786,W,1,12,1.0,0.0,M,0.0,M,,*7C
$GPGSA,A,3,01,02,03,04,05,06,07,08,09,10,11,12,1.0,1.0,1.0*30
$GPRMC,212321.000,A,4649.168,N,09203.786,W,014.6,053.0,231220,000.0,W*6D
$GPGGA,212322.000,4649.171,N,09203.782,W,1,12,1.0,0.0,M,0.0,M,,*73
$GPGSA,A,3,01,02,03,04,05,06,07,08,09,10,11,12,1.0,1.0,1.0*30
$GPRMC,212322.000,A,4649.171,N,09203.782,W,010.3,056.2,231220,000.0,W*64
$GPGGA,212323.000,4649.173,N,09203.779,W,1,12,1.0,0.0,M,0.0,M,,*74
$GPGSA,A,3,01,02,03,04,05,06,07,08,09,10,11,12,1.0,1.0,1.0*30
$GPRMC,212323.000,A,4649.173,N,09203.779,W,016.2,036.8,231220,000.0,W*68
$GPGGA,212324.000,4649.177,N,09203.776,W,1,12,1.0,0.0,M,0.0,M,,*78
$GPGSA,A,3,01,02,03,04,05,06,07,08,09,10,11,12,1.0,1.0,1.0*30
$GPRMC,212324.000,A,4649.177,N,09203.776,W,013.1,044.9,231220,000.0,W*66
$GPGGA,212325.000,4649.180,N,09203.773,W,1,12,1.0,0.0,M,0.0,M,,*74
$GPGSA,A,3,01,02,03,04,05,06,07,08,09,10,11,12,1.0,1.0,1.0*30
$GPRMC,212325.000,A,4649.180,N,09203.773,W,008.2,071.5,231220,000.0,W*69
$GPGGA,212326.000,4649.181,N,09203.770,W,1,12,1.0,0.0,M,0.0,M,,*75
$GPGSA,A,3,01,02,03,04,05,06,07,08,09,10,11,12,1.0,1.0,1.0*30
$GPRMC,212326.000,A,4649.181,N,09203.770,W,014.6,053.0,231220,000.0,W*64
$GPGGA,212327.000,4649.184,N,09203.766,W,1,12,1.0,0.0,M,0.0,M,,*76
$GPGSA,A,3,01,02,03,04,05,06,07,08,09,10,11,12,1.0,1.0,1.0*30
$GPRMC,212327.000,A,4649.184,N,09203.766,W,012.2,063.4,231220,000.0,W*62
$GPGGA,212328.000,4649.186,N,09203.762,W,1,12,1.0,0.0,M,0.0,M,,*7F
$GPGSA,A,3,01,02,03,04,05,06,07,08,09,10,11,12,1.0,1.0,1.0*30
$GPRMC,212328.000,A,4649.186,N,09203.762,W,010.5,075.9,231220,000.0,W*64
$GPGGA,212329.000,4649.187,N,09203.758,W,1,12,1.0,0.0,M,0.0,M,,*76
$GPGSA,A,3,01,02,03,04,05,06,07,08,09,10,11,12,1.0,1.0,1.0*30
$GPRMC,212329.000,A,4649.187,N,09203.758,W,023.8,033.6,231220,000.0,W*6D
$GPGGA,212330.000,4649.193,N,09203.754,W,1,12,1.0,0.0,M,0.0,M,,*77
$GPGSA,A,3,01,02,03,04,05,06,07,08,09,10,11,12,1.0,1.0,1.0*30
$GPRMC,212330.000,A,4649.193,N,09203.754,W,020.5,038.6,231220,000.0,W*69
$GPGGA,212331.000,4649.198,N,09203.750,W,1,12,1.0,0.0,M,0.0,M,,*79
$GPGSA,A,3,01,02,03,04,05,06,07,08,09,10,11,12,1.0,1.0,1.0*30
$GPRMC,212331.000,A,4649.198,N,09203.750,W,017.5,135.1,231220,000.0,W*68
$GPGGA,212332.000,4649.194,N,09203.746,W,1,12,1.0,0.0,M,0.0,M,,*71
$GPGSA,A,3,01,02,03,04,05,06,07,08,09,10,11,12,1.0,1.0,1.0*30
$GPRMC,212332.000,A,4649.194,N,09203.746,W,012.2,063.4,231220,000.0,W*65
$GPGGA,212333.000,4649.196,N,09203.742,W,1,12,1.0,0.0,M,0.0,M,,*76
$GPGSA,A,3,01,02,03,04,05,06,07,08,09,10,11,12,1.0,1.0,1.0*30
$GPRMC,212333.000,A,4649.196,N,09203.742,W,011.9,033.6,231220,000.0,W*6D
$GPGGA,212334.000,4649.199,N,09203.740,W,1,12,1.0,0.0,M,0.0,M,,*7C
$GPGSA,A,3,01,02,03,04,05,06,07,08,09,10,11,12,1.0,1.0,1.0*30
$GPRMC,212334.000,A,4649.199,N,09203.740,W,008.2,071.5,231220,000.0,W*61
$GPGGA,212335.000,4649.200,N,09203.737,W,1,12,1.0,0.0,M,0.0,M,,*7E
$GPGSA,A,3,01,02,03,04,05,06,07,08,09,10,11,12,1.0,1.0,1.0*30
$GPRMC,212335.000,A,4649.200,N,09203.737,W,006.1,063.3,231220,000.0,W*6B
$GPGGA,212336.000,4649.201,N,09203.735,W,1,12,1.0,0.0,M,0.0,M,,*7E
$GPGSA,A,3,01,02,03,04,05,06,07,08,09,10,11,12,1.0,1.0,1.0*30
$GPRMC,212336.000,A,4649.201,N,09203.735,W,009.9,090.0,231220,000.0,W*63
$GPGGA,212337.000,4649.201,N,09203.731,W,1,12,1.0,0.0,M,0.0,M,,*7B
$GPGSA,A,3,01,02,03,04,05,06,07,08,09,10,11,12,1.0,1.0,1.0*30
$GPRMC,212337.000,A,4649.201,N,09203.731,W,015.2,026.5,231220,000.0,W*68
$GPGGA,212338.000,4649.205,N,09203.729,W,1,12,1.0,0.0,M,0.0,M,,*79
$GPGSA,A,3,01,02,03,04,05,06,07,08,09,10,11,12,1.0,1.0,1.0*30
$GPRMC,212338.000,A,4649.205,N,09203.729,W,010.3,056.2,231220,000.0,W*6E
$GPGGA,212339.000,4649.207,N,09203.726,W,1,12,1.0,0.0,M,0.0,M,,*75
$GPGSA,A,3,01,02,03,04,05,06,07,08,09,10,11,12,1.0,1.0,1.0*30
$GPRMC,212339.000,A,4649.207,N,09203.726,W,015.2,026.5,231220,000.0,W*66
$GPGGA,212340.000,4649.211,N,09203.724,W,1,12,1.0,0.0,M,0.0,M,,*7E
$GPGSA,A,3,01,02,03,04,05,06,07,08,09,10,11,12,1.0,1.0,1.0*30
$GPRMC,212340.000,A,4649.211,N,09203.724,W,012.2,063.4,231220,000.0,W*6A
$GPGGA,212341.000,4649.213,N,09203.720,W,1,12,1.0,0.0,M,0.0,M,,*79
$GPGSA,A,3,01,02,03,04,05,06,07,08,09,10,11,12,1.0,1.0,1.0*30
$GPRMC,212341.000,A,4649.213,N,09203.720,W,015.2,026.5,231220,000.0,W*6A
$GPGGA,212342.000,4649.217,N,09203.718,W,1,12,1.0,0.0,M,0.0,M,,*75
$GPGSA,A,3,01,02,03,04,05,06,07,08,09,10,11,12,1.0,1.0,1.0*30
$GPRMC,212342.000,A,4649.217,N,09203.718,W,010.3,056.2,231220,000.0,W*62
$GPGGA,212343.000,4649.219,N,09203.715,W,1,12,1.0,0.0,M,0.0,M,,*77
$GPGSA,A,3,01,02,03,04,05,06,07,08,09,10,11,12,1.0,1.0,1.0*30
$GPRMC,212343.000,A,4649.219,N,09203.715,W,006.1,063.4,231220,000.0,W*65
$GPGGA,212344.000,4649.220,N,09203.713,W,1,12,1.0,0.0,M,0.0,M,,*7C
$GPGSA,A,3,01,02,03,04,05,06,07,08,09,10,11,12,1.0,1.0,1.0*30
$GPRMC,212344.000,A,4649.220,N,09203.713,W,013.1,044.9,231220,000.0,W*62
$GPGGA,212345.000,4649.223,N,09203.710,W,1,12,1.0,0.0,M,0.0,M,,*7D
$GPGSA,A,3,01,02,03,04,05,06,07,08,09,10,11,12,1.0,1.0,1.0*30
$GPRMC,212345.000,A,4649.223,N,09203.710,W,008.7,044.9,231220,000.0,W*6F
$GPGGA,212346.000,4649.225,N,09203.708,W,1,12,1.0,0.0,M,0.0,M,,*71
$GPGSA,A,3,01,02,03,04,05,06,07,08,09,10,11,12,1.0,1.0,1.0*30
$GPRMC,212346.000,A,4649.225,N,09203.708,W,007.6,026.5,231220,000.0,W*65
$GPGGA,212347.000,4649.227,N,09203.707,W,1,12,1.0,0.0,M,0.0,M,,*7D
$GPGSA,A,3,01,02,03,04,05,06,07,08,09,10,11,12,1.0,1.0,1.0*30
$GPRMC,212347.000,A,4649.227,N,09203.707,W,010.3,056.2,231220,000.0,W*6A
$GPGGA,212348.000,4649.229,N,09203.704,W,1,12,1.0,0.0,M,0.0,M,,*7F
$GPGSA,A,3,01,02,03,04,05,06,07,08,09,10,11,12,1.0,1.0,1.0*30
$GPRMC,212348.000,A,4649.229,N,09203.704,W,006.1,063.3,231220,000.0,W*6A
$GPGGA,212349.000,4649.230,N,09203.702,W,1,12,1.0,0.0,M,0.0,M,,*70
$GPGSA,A,3,01,02,03,04,05,06,07,08,09,10,11,12,1.0,1.0,1.0*30
$GPRMC,212349.000,A,4649.230,N,09203.702,W,010.3,056.2,231220,000.0,W*67
$GPGGA,212350.000,4649.232,N,09203.699,W,1,12,1.0,0.0,M,0.0,M,,*79
$GPGSA,A,3,01,02,03,04,05,06,07,08,09,10,11,12,1.0,1.0,1.0*30
$GPRMC,212350.000,A,4649.232,N,09203.699,W,008.7,044.9,231220,000.0,W*6B
$GPGGA,212351.000,4649.234,N,09203.697,W,1,12,1.0,0.0,M,0.0,M,,*70
$GPGSA,A,3,01,02,03,04,05,06,07,08,09,10,11,12,1.0,1.0,1.0*30
$GPRMC,212351.000,A,4649.234,N,09203.697,W,008.7,044.9,231220,000.0,W*62
$GPGGA,212352.000,4649.236,N,09203.695,W,1,12,1.0,0.0,M,0.0,M,,*73
$GPGSA,A,3,01,02,03,04,05,06,07,08,09,10,11,12,1.0,1.0,1.0*30
$GPRMC,212352.000,A,4649.236,N,09203.695,W,006.1,063.3,231220,000.0,W*66
$GPGGA,212353.000,4649.237,N,09203.693,W,1,12,1.0,0.0,M,0.0,M,,*75
$GPGSA,A,3,01,02,03,04,05,06,07,08,09,10,11,12,1.0,1.0,1.0*30
$GPRMC,212353.000,A,4649.237,N,09203.693,W,008.7,044.9,231220,000.0,W*67
$GPGGA,212354.000,4649.239,N,09203.691,W,1,12,1.0,0.0,M,0.0,M,,*7E
$GPGSA,A,3,01,02,03,04,05,06,07,08,09,10,11,12,1.0,1.0,1.0*30
$GPRMC,212354.000,A,4649.239,N,09203.691,W,008.7,044.9,231220,000.0,W*6C
$GPGGA,212355.000,4649.241,N,09203.689,W,1,12,1.0,0.0,M,0.0,M,,*79
$GPGSA,A,3,01,02,03,04,05,06,07,08,09,10,11,12,1.0,1.0,1.0*30
$GPRMC,212355.000,A,4649.241,N,09203.689,W,006.1,063.3,231220,000.0,W*6C
$GPGGA,212356.000,4649.242,N,09203.687,W,1,12,1.0,0.0,M,0.0,M,,*77
$GPGSA,A,3,01,02,03,04,05,06,07,08,09,10,11,12,1.0,1.0,1.0*30
$GPRMC,212356.000,A,4649.242,N,09203.687,W,010.3,056.2,231220,000.0,W*60
$GPGGA,212357.000,4649.244,N,09203.684,W,1,12,1.0,0.0,M,0.0,M,,*73
$GPGSA,A,3,01,02,03,04,05,06,07,08,09,10,11,12,1.0,1.0,1.0*30
$GPRMC,212357.000,A,4649.244,N,09203.684,W,004.4,044.9,231220,000.0,W*6E
$GPGGA,212358.000,4649.245,N,09203.683,W,1,12,1.0,0.0,M,0.0,M,,*7A
$GPGSA,A,3,01,02,03,04,05,06,07,08,09,10,11,12,1.0,1.0,1.0*30
$GPRMC,212358.000,A,4649.245,N,09203.683,W,008.7,044.9,231220,000.0,W*68
$GPGGA,212359.000,4649.247,N,09203.681,W,1,12,1.0,0.0,M,0.0,M,,*7B
$GPGSA,A,3,01,02,03,04,05,06,07,08,09,10,11,12,1.0,1.0,1.0*30
$GPRMC,212359.000,A,4649.247,N,09203.681,W,004.9,090.0,231220,000.0,W*6B
$GPGGA,212400.000,4649.247,N,09203.679,W,1,12,1.0,0.0,M,0.0,M,,*77
$GPGSA,A,3,01,02,03,04,05,06,07,08,09,10,11,12,1.0,1.0,1.0*30
$GPRMC,212400.000,A,4649.247,N,09203.679,W,008.2,071.5,231220,000.0,W*6A
$GPGGA,212401.000,4649.248,N,09203.676,W,1,12,1.0,0.0,M,0.0,M,,*76
$GPGSA,A,3,01,02,03,04,05,06,07,08,09,10,11,12,1.0,1.0,1.0*30
$GPRMC,212401.000,A,4649.248,N,09203.676,W,008.7,044.9,231220,000.0,W*64
$GPGGA,212402.000,4649.250,N,09203.674,W,1,12,1.0,0.0,M,0.0,M,,*7E
$GPGSA,A,3,01,02,03,04,05,06,07,08,09,10,11,12,1.0,1.0,1.0*30
$GPRMC,212402.000,A,4649.250,N,09203.674,W,006.1,063.3,231220,000.0,W*6B
$GPGGA,212403.000,4649.251,N,09203.672,W,1,12,1.0,0.0,M,0.0,M,,*78
$GPGSA,A,3,01,02,03,04,05,06,07,08,09,10,11,12,1.0,1.0,1.0*30
$GPRMC,212403.000,A,4649.251,N,09203.672,W,008.7,044.9,231220,000.0,W*6A
